"","Stationnumber","date","weekday","RidesOut","RidesIn","Rideoutminusin","Name","Latitude","Longitude","Total.docks"
"1","30184",2017-11-05,"Sun",8,5,3,"Hennepin Ave & S Washington Ave",44.981895,-93.269195,23
"2","30122",2017-11-05,"Sun",2,2,0,"Broadway Street N & 4th Street E",44.94965,-93.0845,19
"3","30106",2017-11-05,"Sun",3,1,2,"Dale Street & Grand Ave.",44.939779,-93.126261,15
"4","30183",2017-11-05,"Sun",8,5,3,"Weisman Art Museum",44.973607,-93.237254,19
"5","30030",2017-11-05,"Sun",3,2,1,"South 2nd Street & 3rd Ave S",44.98092673,-93.26345444,23
"6","30197",2017-11-05,"Sun",6,7,-1,"15th Ave SE & 4th Street SE",44.979878,-93.234739,23
"7","30067",2017-11-05,"Sun",1,0,1,"Bryant Ave N & West Broadway",44.999341,-93.290941,15
"8","30101",2017-11-05,"Sun",2,2,0,"N Milton Street & Summit Ave",44.941599,-93.138832,15
"9","30051",2017-11-05,"Sun",4,3,1,"7th Street & 4th Ave S",44.97497,-93.266684,15
"10","30004",2017-11-05,"Sun",3,3,0,"11th Street & Hennepin",44.97534,-93.27869,23
"11","30115",2017-11-05,"Sun",9,7,2,"Washington Ave SE & Union Street SE",44.97394,-93.2321,31
"12","30186",2017-11-05,"Sun",5,5,0,"S 5th Street & Nicollet Mall",44.97866518,-93.27050328,19
"13","30192",2017-11-05,"Sun",1,3,-2,"Cooke Hall",44.976303,-93.230029,15
"14","30196",2017-11-05,"Sun",1,2,-1,"Civil Engineering",44.976096,-93.231958,23
"15","30057",2017-11-05,"Sun",9,4,5,"McNamara Center",44.9743,-93.22854,19
"16","30109",2017-11-05,"Sun",2,2,0,"Como Ave SE & 29th Ave SE",44.987934,-93.212892,19
"17","30088",2017-11-05,"Sun",8,7,1,"6th Ave SE & University Ave",44.983281,-93.24812,27
"18","30080",2017-11-05,"Sun",1,0,1,"Midtown YWCA",44.94823,-93.24054,15
"19","30039",2017-11-05,"Sun",6,3,3,"10th Street & Nicollet Mall",44.973839,-93.274544,19
"20","30047",2017-11-05,"Sun",6,8,-2,"University & Bank Street SE",44.98717,-93.25576,19
"21","30090",2017-11-05,"Sun",5,3,2,"Portland Ave & Washington Ave",44.978068,-93.26023,19
"22","30110",2017-11-05,"Sun",3,4,-1,"15th Ave SE & Como Ave SE",44.987517,-93.230469,19
"23","30013",2017-11-05,"Sun",4,1,3,"Lyndale Ave S & W 29th Street",44.94948465,-93.28822732,19
"24","30009",2017-11-05,"Sun",4,4,0,"4th Street & 13th Ave SE",44.98102,-93.23746,27
"25","30180",2017-11-05,"Sun",3,5,-2,"3rd Street N & 8th Ave N",44.987996,-93.279854,19
"26","30187",2017-11-05,"Sun",6,4,2,"Groveland Ave & Clifton Place",44.966145,-93.286294,19
"27","30029",2017-11-05,"Sun",2,2,0,"Hennepin County Government Center",44.976602,-93.266701,41
"28","30141",2017-11-05,"Sun",2,2,0,"N Robert Street & E 10th Street",44.951132,-93.094545,19
"29","30091",2017-11-05,"Sun",3,5,-2,"Gateway Park",44.9825943,-93.2675139,19
"30","30035",2017-11-05,"Sun",2,2,0,"Loring Park",44.9715,-93.284927,15
"31","30194",2017-11-05,"Sun",5,8,-3,"23rd Ave SE & University Ave SE",44.974397,-93.223002,23
"32","30027",2017-11-05,"Sun",2,2,0,"4th Street S & 19th Ave",44.97003,-93.24519,19
"33","30116",2017-11-05,"Sun",1,1,0,"Minnesota History Center",44.949053,-93.10673,15
"34","30011",2017-11-05,"Sun",6,1,5,"North 2nd Street & 4th Ave N",44.986087,-93.272459,19
"35","30032",2017-11-05,"Sun",4,3,1,"4th Street & 17th Ave SE",44.97913,-93.23189,15
"36","30018",2017-11-05,"Sun",1,4,-3,"MCAD",44.957214,-93.274981,17
"37","30176",2017-11-05,"Sun",2,2,0,"Washington Ave N & Cedar Lake Trail",44.985406,-93.274031,19
"38","30087",2017-11-05,"Sun",3,0,3,"Grant Street & Portland Ave",44.96954,-93.2669,15
"39","30034",2017-11-05,"Sun",4,5,-1,"Oak Street Ramp",44.97202,-93.22697,23
"40","30142",2017-11-05,"Sun",2,4,-2,"9th Street N & Hawthorne Ave",44.97731428,-93.27776134,27
"41","30204",2017-11-05,"Sun",1,1,0,"NE Central Ave & NE 14th Ave",45.002526,-93.247162,15
"42","30060",2017-11-05,"Sun",6,3,3,"Nicollet & Franklin",44.96342,-93.277939,23
"43","30025",2017-11-05,"Sun",1,1,0,"Williamson Hall",44.977406,-93.234911,25
"44","30127",2017-11-05,"Sun",1,1,0,"Landmark Plaza",44.945267,-93.096114,15
"45","30031",2017-11-05,"Sun",4,3,1,"23rd Ave SE & 6th Street SE",44.977028,-93.221639,23
"46","30000",2017-11-05,"Sun",5,2,3,"100 Main Street SE",44.984892,-93.256551,27
"47","30189",2017-11-05,"Sun",6,0,6,"Delaware Street SE & 26th Ave SE",44.972128,-93.221021,19
"48","30085",2017-11-05,"Sun",1,1,0,"Grand Ave & Fairview Ave",44.940513,-93.177093,15
"49","30100",2017-11-05,"Sun",4,4,0,"Lake Como Pavilion",44.981914,-93.143383,23
"50","30019",2017-11-05,"Sun",1,4,-3,"Social Sciences",44.97063898,-93.24355245,27
"51","30149",2017-11-05,"Sun",3,4,-1,"Minnehaha Park",44.916906,-93.213587,27
"52","30155",2017-11-05,"Sun",1,1,0,"University of St. Thomas",44.93992412,-93.19278225,15
"53","30105",2017-11-05,"Sun",1,0,1,"Lexington Pkwy & University Ave",44.955363,-93.146379,15
"54","30042",2017-11-05,"Sun",5,3,2,"IDS Center",44.975641,-93.272185,23
"55","30156",2017-11-05,"Sun",1,2,-1,"Lake Nokomis",44.915957,-93.242761,23
"56","NRHQ",2017-11-05,"Sun",1,1,0,"Nice Ride World Headquarters",44.953566,-93.220066,7
"57","30094",2017-11-05,"Sun",4,1,3,"West 32nd Street & Bryant Ave S",44.94478,-93.29038,15
"58","30074",2017-11-05,"Sun",4,5,-1,"27th Ave SE & University Ave",44.97259,-93.218919,15
"59","30147",2017-11-05,"Sun",1,1,0,"Lake Street & West River Parkway",44.948452,-93.206201,15
"60","30191",2017-11-05,"Sun",2,0,2,"University Ave SE & Bedford Street SE",44.96876,-93.21003,15
"61","30174",2017-11-05,"Sun",1,0,1,"Hiawatha Ave & E 50th Street",44.91294254,-93.21014017,15
"62","30190",2017-11-05,"Sun",1,0,1,"7th Street SE & 10th Ave SE",44.985576,-93.238743,15
"63","30012",2017-11-05,"Sun",4,3,1,"Mpls Convention Center",44.970041,-93.275861,19
"64","30024",2017-11-05,"Sun",2,4,-2,"Coffman Union",44.973378,-93.234762,35
"65","30198",2017-11-05,"Sun",1,1,0,"Bohemian Flats",44.976223,-93.2416,15
"66","30185",2017-11-05,"Sun",1,0,1,"5th Street NE & 3rd Ave NE",44.991821,-93.255558,15
"67","30037",2017-11-05,"Sun",2,2,0,"Currie Park",44.969225,-93.251136,15
"68","30020",2017-11-05,"Sun",3,1,2,"YWCA Uptown",44.95131,-93.29853,19
"69","30043",2017-11-05,"Sun",1,4,-3,"Lake Street & Humboldt",44.94865,-93.30077,19
"70","30049",2017-11-05,"Sun",1,2,-1,"Nicollet Ave & W 37th Street",44.93531794,-93.27807784,15
"71","30015",2017-11-05,"Sun",3,3,0,"Washington & Cedar",44.97344,-93.24748,20
"72","30062",2017-11-05,"Sun",2,3,-1,"Minneapolis Farmers Market",44.98052,-93.28542,15
"73","30166",2017-11-05,"Sun",1,1,0,"W 36th Street & W Calhoun Parkway",44.937817,-93.320212,19
"74","30093",2017-11-05,"Sun",2,6,-4,"West 15th Street & Willow",44.968237,-93.281991,23
"75","30125",2017-11-05,"Sun",1,0,1,"Cedar Street & Columbus Ave",44.95235098,-93.09954867,15
"76","30026",2017-11-05,"Sun",1,2,-1,"Mayo Memorial Building",44.97209,-93.23206,25
"77","30017",2017-11-05,"Sun",2,5,-3,"Lyndale Ave S & 22nd Street ",44.960744,-93.28815,19
"78","30111",2017-11-05,"Sun",1,2,-1,"Hamline Ave N & University Ave",44.9559764,-93.15670252,15
"79","30007",2017-11-05,"Sun",4,2,2,"9th Street & 4th Ave",44.97265,-93.26872,19
"80","30044",2017-11-05,"Sun",2,1,1,"26th Street & Hennepin",44.9554734,-93.29714298,15
"81","30061",2017-11-05,"Sun",1,0,1,"W 31st Street & Hennepin Ave S",44.946687,-93.29736,19
"82","30202",2017-11-05,"Sun",2,0,2,"Mill City Quarter",44.9805,-93.2618,23
"83","30188",2017-11-05,"Sun",1,2,-1,"S 8th Street & 2nd Ave S",44.974795,-93.270649,19
"84","30137",2017-11-05,"Sun",1,1,0,"Selby Ave & Virginia Street",44.9467,-93.1151,19
"85","30195",2017-11-05,"Sun",2,2,0,"Willey Hall",44.972404,-93.242891,23
"86","30128",2017-11-05,"Sun",1,1,0,"Wells Fargo Place",44.94813,-93.09663,15
"87","30064",2017-11-05,"Sun",1,2,-1,"28th Street & Nicollet Ave. S",44.9519,-93.27831,15
"88","30073",2017-11-05,"Sun",1,2,-1,"West 34th Street  & Hennepin Ave S",44.941388,-93.298634,19
"89","30046",2017-11-05,"Sun",3,1,2,"Washington Ave S & 10th Ave S",44.97654,-93.25535,19
"90","30171",2017-11-05,"Sun",1,3,-2,"SE 3rd Ave & University Ave SE",44.985465,-93.252102,15
"91","30014",2017-11-05,"Sun",1,2,-1,"22nd Ave S & Franklin Ave",44.96293,-93.241042,15
"92","30048",2017-11-05,"Sun",2,3,-1,"Dupont Ave & 22nd Street",44.96146,-93.29303,15
"93","30138",2017-11-05,"Sun",1,1,0,"University Ave & Western Ave",44.95562,-93.11665,15
"94","30181",2017-11-05,"Sun",2,0,2,"5th Ave N & 4th Street N",44.98446,-93.277234,23
"95","30159",2017-11-05,"Sun",1,1,0,"Fort Snelling State Park",44.890527,-93.18237,19
"96","30003",2017-11-05,"Sun",1,0,1,"Plymouth Ave N &  N Oliver Ave",44.991412,-93.306269,15
"97","30153",2017-11-05,"Sun",1,1,0,"Coldwater Spring",44.905043,-93.198283,15
"98","30006",2017-11-05,"Sun",1,3,-2,"YWCA Downtown",44.972217,-93.276435,23
"99","30086",2017-11-05,"Sun",2,2,0,"Macalester College",44.940218,-93.17022,15
"100","30113",2017-11-05,"Sun",1,0,1,"U of M St. Paul Student Center",44.984527,-93.185029,15
"101","30144",2017-11-05,"Sun",1,0,1,"N 4th Ave & W River Parkway",44.988461,-93.269087,15
"102","30162",2017-11-05,"Sun",2,2,0,"Mississippi River Blvd & Summit Ave",44.940288,-93.197997,15
"103","30179",2017-11-05,"Sun",1,2,-1,"Park Ave & 4th Street S",44.97589503,-93.25998902,27
"104","30008",2017-11-05,"Sun",1,2,-1,"Midtown Exchange",44.94859,-93.2602,19
"105","30038",2017-11-05,"Sun",2,0,2,"E Franklin Ave & Bloomington Ave S",44.96285,-93.252269,15
"106","30089",2017-11-05,"Sun",1,2,-1,"Lake Calhoun Center",44.94846717,-93.31729442,27
"107","30154",2017-11-05,"Sun",1,3,-2,"11th Ave S & S 2nd Street",44.97673,-93.252189,23
"108","30054",2017-11-05,"Sun",1,1,0,"Midtown Greenway & 5th Ave S",44.950371,-93.269278,15
"109","30053",2017-11-05,"Sun",3,3,0,"2nd Ave N & N 6th Street",44.980536,-93.275626,23
"110","30029",2017-11-04,"Sat",2,2,0,"Hennepin County Government Center",44.976602,-93.266701,41
"111","30101",2017-11-04,"Sat",2,2,0,"N Milton Street & Summit Ave",44.941599,-93.138832,15
"112","30115",2017-11-04,"Sat",8,10,-2,"Washington Ave SE & Union Street SE",44.97394,-93.2321,31
"113","30019",2017-11-04,"Sat",9,4,5,"Social Sciences",44.97063898,-93.24355245,27
"114","30040",2017-11-04,"Sat",1,3,-2,"11th Street & Marquette",44.97265,-93.27405,19
"115","30002",2017-11-04,"Sat",2,1,1,"Riverside Ave & 23rd Ave S",44.967115,-93.240149,15
"116","30074",2017-11-04,"Sat",3,2,1,"27th Ave SE & University Ave",44.97259,-93.218919,15
"117","30182",2017-11-04,"Sat",7,6,1,"Sanford Hall",44.980831,-93.240282,23
"118","30195",2017-11-04,"Sat",6,8,-2,"Willey Hall",44.972404,-93.242891,23
"119","30008",2017-11-04,"Sat",2,3,-1,"Midtown Exchange",44.94859,-93.2602,19
"120","30060",2017-11-04,"Sat",1,0,1,"Nicollet & Franklin",44.96342,-93.277939,23
"121","30053",2017-11-04,"Sat",1,1,0,"2nd Ave N & N 6th Street",44.980536,-93.275626,23
"122","30004",2017-11-04,"Sat",9,4,5,"11th Street & Hennepin",44.97534,-93.27869,23
"123","30027",2017-11-04,"Sat",2,5,-3,"4th Street S & 19th Ave",44.97003,-93.24519,19
"124","30202",2017-11-04,"Sat",2,3,-1,"Mill City Quarter",44.9805,-93.2618,23
"125","30086",2017-11-04,"Sat",2,1,1,"Macalester College",44.940218,-93.17022,15
"126","30184",2017-11-04,"Sat",1,7,-6,"Hennepin Ave & S Washington Ave",44.981895,-93.269195,23
"127","30110",2017-11-04,"Sat",3,3,0,"15th Ave SE & Como Ave SE",44.987517,-93.230469,19
"128","30034",2017-11-04,"Sat",3,2,1,"Oak Street Ramp",44.97202,-93.22697,23
"129","30055",2017-11-04,"Sat",9,11,-2,"Malcolm Ave SE & 5th Street SE",44.97337143,-93.21126401,24
"130","30093",2017-11-04,"Sat",4,6,-2,"West 15th Street & Willow",44.968237,-93.281991,23
"131","30018",2017-11-04,"Sat",1,3,-2,"MCAD",44.957214,-93.274981,17
"132","30107",2017-11-04,"Sat",1,0,1,"Dale Street N & University Ave",44.956066,-93.126088,15
"133","30024",2017-11-04,"Sat",7,5,2,"Coffman Union",44.973378,-93.234762,35
"134","30057",2017-11-04,"Sat",6,5,1,"McNamara Center",44.9743,-93.22854,19
"135","30197",2017-11-04,"Sat",11,8,3,"15th Ave SE & 4th Street SE",44.979878,-93.234739,23
"136","30187",2017-11-04,"Sat",5,5,0,"Groveland Ave & Clifton Place",44.966145,-93.286294,19
"137","30000",2017-11-04,"Sat",3,2,1,"100 Main Street SE",44.984892,-93.256551,27
"138","30025",2017-11-04,"Sat",2,1,1,"Williamson Hall",44.977406,-93.234911,25
"139","30193",2017-11-04,"Sat",3,1,2,"Mariucci Arena",44.977899,-93.226629,25
"140","30143",2017-11-04,"Sat",4,5,-1,"Chicago Ave & S Washington Ave",44.977521,-93.256736,19
"141","30047",2017-11-04,"Sat",5,5,0,"University & Bank Street SE",44.98717,-93.25576,19
"142","30091",2017-11-04,"Sat",3,2,1,"Gateway Park",44.9825943,-93.2675139,19
"143","30042",2017-11-04,"Sat",4,7,-3,"IDS Center",44.975641,-93.272185,23
"144","30192",2017-11-04,"Sat",2,2,0,"Cooke Hall",44.976303,-93.230029,15
"145","30144",2017-11-04,"Sat",1,3,-2,"N 4th Ave & W River Parkway",44.988461,-93.269087,15
"146","30154",2017-11-04,"Sat",20,21,-1,"11th Ave S & S 2nd Street",44.97673,-93.252189,23
"147","30186",2017-11-04,"Sat",5,7,-2,"S 5th Street & Nicollet Mall",44.97866518,-93.27050328,19
"148","30052",2017-11-04,"Sat",4,5,-1,"Nicollet Mall & Grant Street",44.96995,-93.278133,15
"149","30061",2017-11-04,"Sat",1,2,-1,"W 31st Street & Hennepin Ave S",44.946687,-93.29736,19
"150","30140",2017-11-04,"Sat",2,2,0,"Rice Street & University Ave W",44.95562146,-93.10574323,15
"151","30039",2017-11-04,"Sat",4,4,0,"10th Street & Nicollet Mall",44.973839,-93.274544,19
"152","30088",2017-11-04,"Sat",7,7,0,"6th Ave SE & University Ave",44.983281,-93.24812,27
"153","30147",2017-11-04,"Sat",3,3,0,"Lake Street & West River Parkway",44.948452,-93.206201,15
"154","30095",2017-11-04,"Sat",2,0,2,"West 36th Street & Bryant Ave S",44.93775,-93.2912,15
"155","30090",2017-11-04,"Sat",2,2,0,"Portland Ave & Washington Ave",44.978068,-93.26023,19
"156","30183",2017-11-04,"Sat",3,5,-2,"Weisman Art Museum",44.973607,-93.237254,19
"157","30043",2017-11-04,"Sat",1,1,0,"Lake Street & Humboldt",44.94865,-93.30077,19
"158","30104",2017-11-04,"Sat",1,2,-1,"Logan Park",44.99882,-93.25276,23
"159","30028",2017-11-04,"Sat",1,1,0,"Washington & Marquette",44.98087361,-93.26692522,19
"160","30035",2017-11-04,"Sat",1,1,0,"Loring Park",44.9715,-93.284927,15
"161","30020",2017-11-04,"Sat",1,0,1,"YWCA Uptown",44.95131,-93.29853,19
"162","30045",2017-11-04,"Sat",2,2,0,"Franklin & 28th Ave",44.962701,-93.230893,19
"163","30017",2017-11-04,"Sat",8,4,4,"Lyndale Ave S & 22nd Street ",44.960744,-93.28815,19
"164","30009",2017-11-04,"Sat",3,5,-2,"4th Street & 13th Ave SE",44.98102,-93.23746,27
"165","30149",2017-11-04,"Sat",3,4,-1,"Minnehaha Park",44.916906,-93.213587,27
"166","30011",2017-11-04,"Sat",4,2,2,"North 2nd Street & 4th Ave N",44.986087,-93.272459,19
"167","30087",2017-11-04,"Sat",2,1,1,"Grant Street & Portland Ave",44.96954,-93.2669,15
"168","30194",2017-11-04,"Sat",2,5,-3,"23rd Ave SE & University Ave SE",44.974397,-93.223002,23
"169","30037",2017-11-04,"Sat",1,1,0,"Currie Park",44.969225,-93.251136,15
"170","NRHQ",2017-11-04,"Sat",1,1,0,"Nice Ride World Headquarters",44.953566,-93.220066,7
"171","30010",2017-11-04,"Sat",4,3,1,"Hennepin & Laurel Ave",44.97391,-93.28305,15
"172","30161",2017-11-04,"Sat",2,3,-1,"27th Ave S & Minnehaha Ave",44.947329,-93.233092,15
"173","30118",2017-11-04,"Sat",2,1,1,"7th Place & Jackson Street",44.949433,-93.091207,15
"174","30157",2017-11-04,"Sat",2,2,0,"Lake Harriet Bandshell",44.92936,-93.30713,25
"175","30160",2017-11-04,"Sat",2,1,1,"Dupont Ave S & W 29th Street",44.949699,-93.293129,15
"176","30015",2017-11-04,"Sat",5,4,1,"Washington & Cedar",44.97344,-93.24748,20
"177","30100",2017-11-04,"Sat",2,2,0,"Lake Como Pavilion",44.981914,-93.143383,23
"178","30014",2017-11-04,"Sat",6,3,3,"22nd Ave S & Franklin Ave",44.96293,-93.241042,15
"179","30038",2017-11-04,"Sat",2,2,0,"E Franklin Ave & Bloomington Ave S",44.96285,-93.252269,15
"180","30185",2017-11-04,"Sat",1,0,1,"5th Street NE & 3rd Ave NE",44.991821,-93.255558,15
"181","30026",2017-11-04,"Sat",3,1,2,"Mayo Memorial Building",44.97209,-93.23206,25
"182","30181",2017-11-04,"Sat",1,1,0,"5th Ave N & 4th Street N",44.98446,-93.277234,23
"183","30176",2017-11-04,"Sat",4,2,2,"Washington Ave N & Cedar Lake Trail",44.985406,-93.274031,19
"184","30083",2017-11-04,"Sat",1,0,1,"Wilder Street & Marshall Ave",44.948147,-93.185819,15
"185","30030",2017-11-04,"Sat",7,8,-1,"South 2nd Street & 3rd Ave S",44.98092673,-93.26345444,23
"186","30064",2017-11-04,"Sat",3,2,1,"28th Street & Nicollet Ave. S",44.9519,-93.27831,15
"187","30199",2017-11-04,"Sat",1,0,1,"Hidden Falls Park",44.90700063,-93.19143176,19
"188","30155",2017-11-04,"Sat",2,4,-2,"University of St. Thomas",44.93992412,-93.19278225,15
"189","30113",2017-11-04,"Sat",2,1,1,"U of M St. Paul Student Center",44.984527,-93.185029,15
"190","30102",2017-11-04,"Sat",2,1,1,"Como Park Conservatory",44.98025511,-93.15167874,19
"191","30142",2017-11-04,"Sat",4,5,-1,"9th Street N & Hawthorne Ave",44.97731428,-93.27776134,27
"192","30180",2017-11-04,"Sat",2,1,1,"3rd Street N & 8th Ave N",44.987996,-93.279854,19
"193","30051",2017-11-04,"Sat",3,0,3,"7th Street & 4th Ave S",44.97497,-93.266684,15
"194","30099",2017-11-04,"Sat",3,1,2,"Kowalski's Market",44.94010259,-93.15315127,15
"195","30158",2017-11-04,"Sat",2,0,2,"Lake Street & Knox Ave S",44.9485,-93.305209,41
"196","30188",2017-11-04,"Sat",3,0,3,"S 8th Street & 2nd Ave S",44.974795,-93.270649,19
"197","30050",2017-11-04,"Sat",2,1,1,"2nd Ave S & S 3rd Street",44.97974,-93.26599,27
"198","30191",2017-11-04,"Sat",1,1,0,"University Ave SE & Bedford Street SE",44.96876,-93.21003,15
"199","30032",2017-11-04,"Sat",1,5,-4,"4th Street & 17th Ave SE",44.97913,-93.23189,15
"200","30048",2017-11-04,"Sat",3,2,1,"Dupont Ave & 22nd Street",44.96146,-93.29303,15
"201","30006",2017-11-04,"Sat",4,3,1,"YWCA Downtown",44.972217,-93.276435,23
"202","30170",2017-11-04,"Sat",2,0,2,"Nicollet Island",44.985388,-93.26145,15
"203","30089",2017-11-04,"Sat",1,3,-2,"Lake Calhoun Center",44.94846717,-93.31729442,27
"204","30033",2017-11-04,"Sat",1,0,1,"Franklin & 11th Ave",44.96251,-93.2583,15
"205","30189",2017-11-04,"Sat",2,2,0,"Delaware Street SE & 26th Ave SE",44.972128,-93.221021,19
"206","30151",2017-11-04,"Sat",1,1,0,"Boom Island Park",44.99254,-93.270256,15
"207","30012",2017-11-04,"Sat",1,2,-1,"Mpls Convention Center",44.970041,-93.275861,19
"208","30097",2017-11-04,"Sat",1,0,1,"Pleasant Ave S &  Lake Street",44.948556,-93.283163,15
"209","30001",2017-11-04,"Sat",1,1,0,"25th Street & 33rd Ave S",44.957341,-93.223374,15
"210","30179",2017-11-04,"Sat",1,1,0,"Park Ave & 4th Street S",44.97589503,-93.25998902,27
"211","30103",2017-11-04,"Sat",1,1,0,"Hague Ave & Dale Street",44.945736,-93.12661,15
"212","30046",2017-11-04,"Sat",1,0,1,"Washington Ave S & 10th Ave S",44.97654,-93.25535,19
"213","30106",2017-11-04,"Sat",1,1,0,"Dale Street & Grand Ave.",44.939779,-93.126261,15
"214","30073",2017-11-04,"Sat",1,1,0,"West 34th Street  & Hennepin Ave S",44.941388,-93.298634,19
"215","30013",2017-11-04,"Sat",2,2,0,"Lyndale Ave S & W 29th Street",44.94948465,-93.28822732,19
"216","30111",2017-11-04,"Sat",1,0,1,"Hamline Ave N & University Ave",44.9559764,-93.15670252,15
"217","30109",2017-11-04,"Sat",1,3,-2,"Como Ave SE & 29th Ave SE",44.987934,-93.212892,19
"218","30076",2017-11-04,"Sat",1,1,0,"Carleton Street & University Ave ",44.963549,-93.195906,15
"219","30071",2017-11-04,"Sat",1,0,1,"7th Street N & Plymouth Ave N",44.991704,-93.293988,15
"220","30194",2017-11-03,"Fri",7,9,-2,"23rd Ave SE & University Ave SE",44.974397,-93.223002,23
"221","30007",2017-11-03,"Fri",3,6,-3,"9th Street & 4th Ave",44.97265,-93.26872,19
"222","30142",2017-11-03,"Fri",2,2,0,"9th Street N & Hawthorne Ave",44.97731428,-93.27776134,27
"223","30024",2017-11-03,"Fri",19,22,-3,"Coffman Union",44.973378,-93.234762,35
"224","30115",2017-11-03,"Fri",21,28,-7,"Washington Ave SE & Union Street SE",44.97394,-93.2321,31
"225","30141",2017-11-03,"Fri",2,0,2,"N Robert Street & E 10th Street",44.951132,-93.094545,19
"226","30093",2017-11-03,"Fri",7,6,1,"West 15th Street & Willow",44.968237,-93.281991,23
"227","30184",2017-11-03,"Fri",5,6,-1,"Hennepin Ave & S Washington Ave",44.981895,-93.269195,23
"228","30063",2017-11-03,"Fri",5,4,1,"Elliot Park",44.970553,-93.26079,15
"229","30183",2017-11-03,"Fri",17,24,-7,"Weisman Art Museum",44.973607,-93.237254,19
"230","30011",2017-11-03,"Fri",7,4,3,"North 2nd Street & 4th Ave N",44.986087,-93.272459,19
"231","30019",2017-11-03,"Fri",11,14,-3,"Social Sciences",44.97063898,-93.24355245,27
"232","30015",2017-11-03,"Fri",3,2,1,"Washington & Cedar",44.97344,-93.24748,20
"233","30197",2017-11-03,"Fri",14,9,5,"15th Ave SE & 4th Street SE",44.979878,-93.234739,23
"234","30103",2017-11-03,"Fri",3,2,1,"Hague Ave & Dale Street",44.945736,-93.12661,15
"235","30171",2017-11-03,"Fri",4,2,2,"SE 3rd Ave & University Ave SE",44.985465,-93.252102,15
"236","30193",2017-11-03,"Fri",6,5,1,"Mariucci Arena",44.977899,-93.226629,25
"237","30143",2017-11-03,"Fri",5,5,0,"Chicago Ave & S Washington Ave",44.977521,-93.256736,19
"238","30110",2017-11-03,"Fri",6,3,3,"15th Ave SE & Como Ave SE",44.987517,-93.230469,19
"239","30009",2017-11-03,"Fri",14,12,2,"4th Street & 13th Ave SE",44.98102,-93.23746,27
"240","30182",2017-11-03,"Fri",8,3,5,"Sanford Hall",44.980831,-93.240282,23
"241","30026",2017-11-03,"Fri",7,6,1,"Mayo Memorial Building",44.97209,-93.23206,25
"242","30008",2017-11-03,"Fri",2,2,0,"Midtown Exchange",44.94859,-93.2602,19
"243","30144",2017-11-03,"Fri",4,1,3,"N 4th Ave & W River Parkway",44.988461,-93.269087,15
"244","30087",2017-11-03,"Fri",4,1,3,"Grant Street & Portland Ave",44.96954,-93.2669,15
"245","30006",2017-11-03,"Fri",7,6,1,"YWCA Downtown",44.972217,-93.276435,23
"246","30004",2017-11-03,"Fri",7,5,2,"11th Street & Hennepin",44.97534,-93.27869,23
"247","30132",2017-11-03,"Fri",3,1,2,"Kellogg Blvd & Wabasha Street",44.943846,-93.09227,15
"248","30023",2017-11-03,"Fri",2,2,0,"Chicago & 27th Street",44.95355,-93.26259,15
"249","30034",2017-11-03,"Fri",13,11,2,"Oak Street Ramp",44.97202,-93.22697,23
"250","30189",2017-11-03,"Fri",6,1,5,"Delaware Street SE & 26th Ave SE",44.972128,-93.221021,19
"251","30042",2017-11-03,"Fri",9,14,-5,"IDS Center",44.975641,-93.272185,23
"252","30057",2017-11-03,"Fri",15,17,-2,"McNamara Center",44.9743,-93.22854,19
"253","30196",2017-11-03,"Fri",8,2,6,"Civil Engineering",44.976096,-93.231958,23
"254","30202",2017-11-03,"Fri",6,5,1,"Mill City Quarter",44.9805,-93.2618,23
"255","30187",2017-11-03,"Fri",4,5,-1,"Groveland Ave & Clifton Place",44.966145,-93.286294,19
"256","30050",2017-11-03,"Fri",6,5,1,"2nd Ave S & S 3rd Street",44.97974,-93.26599,27
"257","30047",2017-11-03,"Fri",2,4,-2,"University & Bank Street SE",44.98717,-93.25576,19
"258","30048",2017-11-03,"Fri",7,6,1,"Dupont Ave & 22nd Street",44.96146,-93.29303,15
"259","30186",2017-11-03,"Fri",8,10,-2,"S 5th Street & Nicollet Mall",44.97866518,-93.27050328,19
"260","30191",2017-11-03,"Fri",3,2,1,"University Ave SE & Bedford Street SE",44.96876,-93.21003,15
"261","30010",2017-11-03,"Fri",4,2,2,"Hennepin & Laurel Ave",44.97391,-93.28305,15
"262","30080",2017-11-03,"Fri",2,0,2,"Midtown YWCA",44.94823,-93.24054,15
"263","30098",2017-11-03,"Fri",1,1,0,"Marshall Street NE & 8th Ave NE",44.995348,-93.266854,15
"264","30195",2017-11-03,"Fri",18,21,-3,"Willey Hall",44.972404,-93.242891,23
"265","30176",2017-11-03,"Fri",6,2,4,"Washington Ave N & Cedar Lake Trail",44.985406,-93.274031,19
"266","NRHQ",2017-11-03,"Fri",2,1,1,"Nice Ride World Headquarters",44.953566,-93.220066,7
"267","30040",2017-11-03,"Fri",1,1,0,"11th Street & Marquette",44.97265,-93.27405,19
"268","30060",2017-11-03,"Fri",5,3,2,"Nicollet & Franklin",44.96342,-93.277939,23
"269","30127",2017-11-03,"Fri",4,4,0,"Landmark Plaza",44.945267,-93.096114,15
"270","30035",2017-11-03,"Fri",4,3,1,"Loring Park",44.9715,-93.284927,15
"271","30031",2017-11-03,"Fri",4,7,-3,"23rd Ave SE & 6th Street SE",44.977028,-93.221639,23
"272","30012",2017-11-03,"Fri",3,3,0,"Mpls Convention Center",44.970041,-93.275861,19
"273","30088",2017-11-03,"Fri",9,7,2,"6th Ave SE & University Ave",44.983281,-93.24812,27
"274","30180",2017-11-03,"Fri",3,1,2,"3rd Street N & 8th Ave N",44.987996,-93.279854,19
"275","30041",2017-11-03,"Fri",6,2,4,"Franklin & Portland",44.962846,-93.267526,15
"276","30070",2017-11-03,"Fri",1,1,0,"West Broadway & Logan Ave N",45.002448,-93.305857,15
"277","30029",2017-11-03,"Fri",10,19,-9,"Hennepin County Government Center",44.976602,-93.266701,41
"278","30027",2017-11-03,"Fri",9,10,-1,"4th Street S & 19th Ave",44.97003,-93.24519,19
"279","30020",2017-11-03,"Fri",2,2,0,"YWCA Uptown",44.95131,-93.29853,19
"280","30030",2017-11-03,"Fri",13,14,-1,"South 2nd Street & 3rd Ave S",44.98092673,-93.26345444,23
"281","30130",2017-11-03,"Fri",4,4,0,"Wabasha Street S & E Fillmore Ave",44.94065697,-93.09000671,17
"282","30032",2017-11-03,"Fri",7,6,1,"4th Street & 17th Ave SE",44.97913,-93.23189,15
"283","30025",2017-11-03,"Fri",7,16,-9,"Williamson Hall",44.977406,-93.234911,25
"284","30083",2017-11-03,"Fri",1,0,1,"Wilder Street & Marshall Ave",44.948147,-93.185819,15
"285","30139",2017-11-03,"Fri",1,0,1,"E 14th Street & N Robert Street ",44.954697,-93.097817,15
"286","30051",2017-11-03,"Fri",6,4,2,"7th Street & 4th Ave S",44.97497,-93.266684,15
"287","30016",2017-11-03,"Fri",4,2,2,"Walker Art Center",44.96710368,-93.2890749,23
"288","30039",2017-11-03,"Fri",6,9,-3,"10th Street & Nicollet Mall",44.973839,-93.274544,19
"289","30014",2017-11-03,"Fri",4,2,2,"22nd Ave S & Franklin Ave",44.96293,-93.241042,15
"290","30002",2017-11-03,"Fri",2,4,-2,"Riverside Ave & 23rd Ave S",44.967115,-93.240149,15
"291","30089",2017-11-03,"Fri",2,3,-1,"Lake Calhoun Center",44.94846717,-93.31729442,27
"292","30053",2017-11-03,"Fri",1,3,-2,"2nd Ave N & N 6th Street",44.980536,-93.275626,23
"293","30065",2017-11-03,"Fri",1,1,0,"N Washington Ave & 9th Ave N",44.98987911,-93.27978373,15
"294","30154",2017-11-03,"Fri",2,1,1,"11th Ave S & S 2nd Street",44.97673,-93.252189,23
"295","30017",2017-11-03,"Fri",4,4,0,"Lyndale Ave S & 22nd Street ",44.960744,-93.28815,19
"296","30058",2017-11-03,"Fri",2,3,-1,"Elliot Hall",44.97685,-93.23818,15
"297","30055",2017-11-03,"Fri",3,2,1,"Malcolm Ave SE & 5th Street SE",44.97337143,-93.21126401,24
"298","30131",2017-11-03,"Fri",1,3,-2,"Harriet Island",44.93768,-93.094532,19
"299","30109",2017-11-03,"Fri",1,2,-1,"Como Ave SE & 29th Ave SE",44.987934,-93.212892,19
"300","30061",2017-11-03,"Fri",2,3,-1,"W 31st Street & Hennepin Ave S",44.946687,-93.29736,19
"301","30163",2017-11-03,"Fri",2,1,1,"38th Street Light Rail Station",44.93434,-93.229338,15
"302","30033",2017-11-03,"Fri",2,1,1,"Franklin & 11th Ave",44.96251,-93.2583,15
"303","30005",2017-11-03,"Fri",3,3,0,"Hennepin & Central Avenue NE",44.98889,-93.25392,15
"304","30111",2017-11-03,"Fri",1,2,-1,"Hamline Ave N & University Ave",44.9559764,-93.15670252,15
"305","30107",2017-11-03,"Fri",1,2,-1,"Dale Street N & University Ave",44.956066,-93.126088,15
"306","30137",2017-11-03,"Fri",2,1,1,"Selby Ave & Virginia Street",44.9467,-93.1151,19
"307","30085",2017-11-03,"Fri",1,1,0,"Grand Ave & Fairview Ave",44.940513,-93.177093,15
"308","30122",2017-11-03,"Fri",2,4,-2,"Broadway Street N & 4th Street E",44.94965,-93.0845,19
"309","30160",2017-11-03,"Fri",2,1,1,"Dupont Ave S & W 29th Street",44.949699,-93.293129,15
"310","30106",2017-11-03,"Fri",1,0,1,"Dale Street & Grand Ave.",44.939779,-93.126261,15
"311","30018",2017-11-03,"Fri",3,5,-2,"MCAD",44.957214,-93.274981,17
"312","30094",2017-11-03,"Fri",3,0,3,"West 32nd Street & Bryant Ave S",44.94478,-93.29038,15
"313","30044",2017-11-03,"Fri",2,2,0,"26th Street & Hennepin",44.9554734,-93.29714298,15
"314","30028",2017-11-03,"Fri",8,4,4,"Washington & Marquette",44.98087361,-93.26692522,19
"315","30000",2017-11-03,"Fri",5,3,2,"100 Main Street SE",44.984892,-93.256551,27
"316","30140",2017-11-03,"Fri",1,0,1,"Rice Street & University Ave W",44.95562146,-93.10574323,15
"317","30074",2017-11-03,"Fri",5,5,0,"27th Ave SE & University Ave",44.97259,-93.218919,15
"318","30147",2017-11-03,"Fri",1,1,0,"Lake Street & West River Parkway",44.948452,-93.206201,15
"319","30157",2017-11-03,"Fri",1,1,0,"Lake Harriet Bandshell",44.92936,-93.30713,25
"320","30117",2017-11-03,"Fri",2,4,-2,"10th Street E & Cedar Street",44.950189,-93.09759,15
"321","30190",2017-11-03,"Fri",2,3,-1,"7th Street SE & 10th Ave SE",44.985576,-93.238743,15
"322","30188",2017-11-03,"Fri",2,4,-2,"S 8th Street & 2nd Ave S",44.974795,-93.270649,19
"323","30073",2017-11-03,"Fri",1,2,-1,"West 34th Street  & Hennepin Ave S",44.941388,-93.298634,19
"324","30149",2017-11-03,"Fri",1,0,1,"Minnehaha Park",44.916906,-93.213587,27
"325","30192",2017-11-03,"Fri",2,0,2,"Cooke Hall",44.976303,-93.230029,15
"326","30177",2017-11-03,"Fri",1,0,1,"3rd Street NE & Lowry Ave NE",45.01304,-93.264573,15
"327","30091",2017-11-03,"Fri",4,9,-5,"Gateway Park",44.9825943,-93.2675139,19
"328","30038",2017-11-03,"Fri",1,1,0,"E Franklin Ave & Bloomington Ave S",44.96285,-93.252269,15
"329","30170",2017-11-03,"Fri",2,3,-1,"Nicollet Island",44.985388,-93.26145,15
"330","30056",2017-11-03,"Fri",1,2,-1,"Target Field Station",44.98412539,-93.27903807,19
"331","30001",2017-11-03,"Fri",2,1,1,"25th Street & 33rd Ave S",44.957341,-93.223374,15
"332","30045",2017-11-03,"Fri",4,1,3,"Franklin & 28th Ave",44.962701,-93.230893,19
"333","30003",2017-11-03,"Fri",1,1,0,"Plymouth Ave N &  N Oliver Ave",44.991412,-93.306269,15
"334","30052",2017-11-03,"Fri",1,0,1,"Nicollet Mall & Grant Street",44.96995,-93.278133,15
"335","30090",2017-11-03,"Fri",3,2,1,"Portland Ave & Washington Ave",44.978068,-93.26023,19
"336","30046",2017-11-03,"Fri",2,2,0,"Washington Ave S & 10th Ave S",44.97654,-93.25535,19
"337","30179",2017-11-03,"Fri",2,5,-3,"Park Ave & 4th Street S",44.97589503,-93.25998902,27
"338","30037",2017-11-03,"Fri",3,1,2,"Currie Park",44.969225,-93.251136,15
"339","30059",2017-11-03,"Fri",1,0,1,"Glenwood Ave & N Morgan Ave",44.981147,-93.304427,15
"340","30013",2017-11-03,"Fri",1,1,0,"Lyndale Ave S & W 29th Street",44.94948465,-93.28822732,19
"341","30082",2017-11-03,"Fri",1,0,1,"N Victoria Street & University Ave ",44.956052,-93.136556,15
"342","30099",2017-11-03,"Fri",1,0,1,"Kowalski's Market",44.94010259,-93.15315127,15
"343","30185",2017-11-03,"Fri",2,0,2,"5th Street NE & 3rd Ave NE",44.991821,-93.255558,15
"344","30064",2017-11-03,"Fri",1,0,1,"28th Street & Nicollet Ave. S",44.9519,-93.27831,15
"345","30049",2017-11-03,"Fri",1,0,1,"Nicollet Ave & W 37th Street",44.93531794,-93.27807784,15
"346","30077",2017-11-03,"Fri",1,0,1,"Fairview Ave & University Ave",44.95665,-93.17706,15
"347","30004",2017-11-02,"Thu",4,4,0,"11th Street & Hennepin",44.97534,-93.27869,23
"348","30171",2017-11-02,"Thu",5,3,2,"SE 3rd Ave & University Ave SE",44.985465,-93.252102,15
"349","30182",2017-11-02,"Thu",7,7,0,"Sanford Hall",44.980831,-93.240282,23
"350","30000",2017-11-02,"Thu",2,2,0,"100 Main Street SE",44.984892,-93.256551,27
"351","30046",2017-11-02,"Thu",9,7,2,"Washington Ave S & 10th Ave S",44.97654,-93.25535,19
"352","30064",2017-11-02,"Thu",2,0,2,"28th Street & Nicollet Ave. S",44.9519,-93.27831,15
"353","30057",2017-11-02,"Thu",23,23,0,"McNamara Center",44.9743,-93.22854,19
"354","30031",2017-11-02,"Thu",5,7,-2,"23rd Ave SE & 6th Street SE",44.977028,-93.221639,23
"355","30050",2017-11-02,"Thu",6,8,-2,"2nd Ave S & S 3rd Street",44.97974,-93.26599,27
"356","30040",2017-11-02,"Thu",4,4,0,"11th Street & Marquette",44.97265,-93.27405,19
"357","30111",2017-11-02,"Thu",1,0,1,"Hamline Ave N & University Ave",44.9559764,-93.15670252,15
"358","30115",2017-11-02,"Thu",30,32,-2,"Washington Ave SE & Union Street SE",44.97394,-93.2321,31
"359","30142",2017-11-02,"Thu",2,4,-2,"9th Street N & Hawthorne Ave",44.97731428,-93.27776134,27
"360","30197",2017-11-02,"Thu",12,11,1,"15th Ave SE & 4th Street SE",44.979878,-93.234739,23
"361","30019",2017-11-02,"Thu",32,35,-3,"Social Sciences",44.97063898,-93.24355245,27
"362","30143",2017-11-02,"Thu",5,10,-5,"Chicago Ave & S Washington Ave",44.977521,-93.256736,19
"363","30179",2017-11-02,"Thu",7,7,0,"Park Ave & 4th Street S",44.97589503,-93.25998902,27
"364","30045",2017-11-02,"Thu",5,6,-1,"Franklin & 28th Ave",44.962701,-93.230893,19
"365","30103",2017-11-02,"Thu",3,2,1,"Hague Ave & Dale Street",44.945736,-93.12661,15
"366","30032",2017-11-02,"Thu",11,6,5,"4th Street & 17th Ave SE",44.97913,-93.23189,15
"367","30009",2017-11-02,"Thu",13,12,1,"4th Street & 13th Ave SE",44.98102,-93.23746,27
"368","30015",2017-11-02,"Thu",7,6,1,"Washington & Cedar",44.97344,-93.24748,20
"369","30164",2017-11-02,"Thu",1,1,0,"Cleveland Ave S & Highland Parkway",44.919593,-93.187264,15
"370","30018",2017-11-02,"Thu",3,3,0,"MCAD",44.957214,-93.274981,17
"371","30183",2017-11-02,"Thu",30,23,7,"Weisman Art Museum",44.973607,-93.237254,19
"372","30008",2017-11-02,"Thu",6,4,2,"Midtown Exchange",44.94859,-93.2602,19
"373","30202",2017-11-02,"Thu",5,7,-2,"Mill City Quarter",44.9805,-93.2618,23
"374","30063",2017-11-02,"Thu",6,5,1,"Elliot Park",44.970553,-93.26079,15
"375","30039",2017-11-02,"Thu",8,2,6,"10th Street & Nicollet Mall",44.973839,-93.274544,19
"376","30186",2017-11-02,"Thu",15,14,1,"S 5th Street & Nicollet Mall",44.97866518,-93.27050328,19
"377","30002",2017-11-02,"Thu",3,0,3,"Riverside Ave & 23rd Ave S",44.967115,-93.240149,15
"378","30024",2017-11-02,"Thu",19,22,-3,"Coffman Union",44.973378,-93.234762,35
"379","30176",2017-11-02,"Thu",5,1,4,"Washington Ave N & Cedar Lake Trail",44.985406,-93.274031,19
"380","30096",2017-11-02,"Thu",1,1,0,"University Ave NE & 12th Ave NE",44.999874,-93.262955,15
"381","30184",2017-11-02,"Thu",1,1,0,"Hennepin Ave & S Washington Ave",44.981895,-93.269195,23
"382","30043",2017-11-02,"Thu",1,2,-1,"Lake Street & Humboldt",44.94865,-93.30077,19
"383","30174",2017-11-02,"Thu",1,0,1,"Hiawatha Ave & E 50th Street",44.91294254,-93.21014017,15
"384","30034",2017-11-02,"Thu",12,11,1,"Oak Street Ramp",44.97202,-93.22697,23
"385","30196",2017-11-02,"Thu",5,6,-1,"Civil Engineering",44.976096,-93.231958,23
"386","30158",2017-11-02,"Thu",1,0,1,"Lake Street & Knox Ave S",44.9485,-93.305209,41
"387","30026",2017-11-02,"Thu",10,9,1,"Mayo Memorial Building",44.97209,-93.23206,25
"388","30089",2017-11-02,"Thu",3,6,-3,"Lake Calhoun Center",44.94846717,-93.31729442,27
"389","30093",2017-11-02,"Thu",7,8,-1,"West 15th Street & Willow",44.968237,-93.281991,23
"390","30074",2017-11-02,"Thu",12,7,5,"27th Ave SE & University Ave",44.97259,-93.218919,15
"391","30090",2017-11-02,"Thu",7,6,1,"Portland Ave & Washington Ave",44.978068,-93.26023,19
"392","30101",2017-11-02,"Thu",3,1,2,"N Milton Street & Summit Ave",44.941599,-93.138832,15
"393","30195",2017-11-02,"Thu",22,17,5,"Willey Hall",44.972404,-93.242891,23
"394","30160",2017-11-02,"Thu",4,3,1,"Dupont Ave S & W 29th Street",44.949699,-93.293129,15
"395","30042",2017-11-02,"Thu",10,8,2,"IDS Center",44.975641,-93.272185,23
"396","30011",2017-11-02,"Thu",11,5,6,"North 2nd Street & 4th Ave N",44.986087,-93.272459,19
"397","30056",2017-11-02,"Thu",2,1,1,"Target Field Station",44.98412539,-93.27903807,19
"398","30029",2017-11-02,"Thu",19,19,0,"Hennepin County Government Center",44.976602,-93.266701,41
"399","30048",2017-11-02,"Thu",3,5,-2,"Dupont Ave & 22nd Street",44.96146,-93.29303,15
"400","30188",2017-11-02,"Thu",7,5,2,"S 8th Street & 2nd Ave S",44.974795,-93.270649,19
"401","30080",2017-11-02,"Thu",1,1,0,"Midtown YWCA",44.94823,-93.24054,15
"402","30076",2017-11-02,"Thu",2,1,1,"Carleton Street & University Ave ",44.963549,-93.195906,15
"403","30051",2017-11-02,"Thu",5,5,0,"7th Street & 4th Ave S",44.97497,-93.266684,15
"404","30038",2017-11-02,"Thu",3,4,-1,"E Franklin Ave & Bloomington Ave S",44.96285,-93.252269,15
"405","30027",2017-11-02,"Thu",5,8,-3,"4th Street S & 19th Ave",44.97003,-93.24519,19
"406","30194",2017-11-02,"Thu",4,15,-11,"23rd Ave SE & University Ave SE",44.974397,-93.223002,23
"407","30047",2017-11-02,"Thu",5,4,1,"University & Bank Street SE",44.98717,-93.25576,19
"408","30127",2017-11-02,"Thu",3,2,1,"Landmark Plaza",44.945267,-93.096114,15
"409","30187",2017-11-02,"Thu",5,6,-1,"Groveland Ave & Clifton Place",44.966145,-93.286294,19
"410","30091",2017-11-02,"Thu",11,8,3,"Gateway Park",44.9825943,-93.2675139,19
"411","30110",2017-11-02,"Thu",4,7,-3,"15th Ave SE & Como Ave SE",44.987517,-93.230469,19
"412","30181",2017-11-02,"Thu",4,1,3,"5th Ave N & 4th Street N",44.98446,-93.277234,23
"413","30163",2017-11-02,"Thu",1,0,1,"38th Street Light Rail Station",44.93434,-93.229338,15
"414","30041",2017-11-02,"Thu",3,4,-1,"Franklin & Portland",44.962846,-93.267526,15
"415","30070",2017-11-02,"Thu",1,0,1,"West Broadway & Logan Ave N",45.002448,-93.305857,15
"416","30035",2017-11-02,"Thu",4,4,0,"Loring Park",44.9715,-93.284927,15
"417","30052",2017-11-02,"Thu",2,1,1,"Nicollet Mall & Grant Street",44.96995,-93.278133,15
"418","30154",2017-11-02,"Thu",5,7,-2,"11th Ave S & S 2nd Street",44.97673,-93.252189,23
"419","30016",2017-11-02,"Thu",2,3,-1,"Walker Art Center",44.96710368,-93.2890749,23
"420","30010",2017-11-02,"Thu",3,2,1,"Hennepin & Laurel Ave",44.97391,-93.28305,15
"421","30053",2017-11-02,"Thu",2,5,-3,"2nd Ave N & N 6th Street",44.980536,-93.275626,23
"422","30006",2017-11-02,"Thu",4,5,-1,"YWCA Downtown",44.972217,-93.276435,23
"423","30180",2017-11-02,"Thu",1,3,-2,"3rd Street N & 8th Ave N",44.987996,-93.279854,19
"424","30020",2017-11-02,"Thu",2,2,0,"YWCA Uptown",44.95131,-93.29853,19
"425","30087",2017-11-02,"Thu",6,4,2,"Grant Street & Portland Ave",44.96954,-93.2669,15
"426","30130",2017-11-02,"Thu",1,3,-2,"Wabasha Street S & E Fillmore Ave",44.94065697,-93.09000671,17
"427","30007",2017-11-02,"Thu",4,2,2,"9th Street & 4th Ave",44.97265,-93.26872,19
"428","30081",2017-11-02,"Thu",1,4,-3,"East Lake Street & 36th Ave S",44.94826,-93.22106,15
"429","30113",2017-11-02,"Thu",2,1,1,"U of M St. Paul Student Center",44.984527,-93.185029,15
"430","30025",2017-11-02,"Thu",18,15,3,"Williamson Hall",44.977406,-93.234911,25
"431","30030",2017-11-02,"Thu",5,3,2,"South 2nd Street & 3rd Ave S",44.98092673,-93.26345444,23
"432","30058",2017-11-02,"Thu",9,8,1,"Elliot Hall",44.97685,-93.23818,15
"433","30118",2017-11-02,"Thu",1,1,0,"7th Place & Jackson Street",44.949433,-93.091207,15
"434","30125",2017-11-02,"Thu",1,2,-1,"Cedar Street & Columbus Ave",44.95235098,-93.09954867,15
"435","30191",2017-11-02,"Thu",4,1,3,"University Ave SE & Bedford Street SE",44.96876,-93.21003,15
"436","30023",2017-11-02,"Thu",2,2,0,"Chicago & 27th Street",44.95355,-93.26259,15
"437","30017",2017-11-02,"Thu",5,6,-1,"Lyndale Ave S & 22nd Street ",44.960744,-93.28815,19
"438","30065",2017-11-02,"Thu",1,1,0,"N Washington Ave & 9th Ave N",44.98987911,-93.27978373,15
"439","30106",2017-11-02,"Thu",1,1,0,"Dale Street & Grand Ave.",44.939779,-93.126261,15
"440","30099",2017-11-02,"Thu",2,1,1,"Kowalski's Market",44.94010259,-93.15315127,15
"441","30092",2017-11-02,"Thu",2,4,-2,"2nd Street N & 8th Ave N",44.98961164,-93.27718735,19
"442","30161",2017-11-02,"Thu",2,1,1,"27th Ave S & Minnehaha Ave",44.947329,-93.233092,15
"443","30190",2017-11-02,"Thu",7,5,2,"7th Street SE & 10th Ave SE",44.985576,-93.238743,15
"444","30141",2017-11-02,"Thu",2,1,1,"N Robert Street & E 10th Street",44.951132,-93.094545,19
"445","30013",2017-11-02,"Thu",4,3,1,"Lyndale Ave S & W 29th Street",44.94948465,-93.28822732,19
"446","30147",2017-11-02,"Thu",2,3,-1,"Lake Street & West River Parkway",44.948452,-93.206201,15
"447","30033",2017-11-02,"Thu",2,3,-1,"Franklin & 11th Ave",44.96251,-93.2583,15
"448","30148",2017-11-02,"Thu",1,1,0,"46th Street Light Rail Station",44.920466,-93.21953,15
"449","30088",2017-11-02,"Thu",13,14,-1,"6th Ave SE & University Ave",44.983281,-93.24812,27
"450","30185",2017-11-02,"Thu",1,1,0,"5th Street NE & 3rd Ave NE",44.991821,-93.255558,15
"451","30122",2017-11-02,"Thu",2,4,-2,"Broadway Street N & 4th Street E",44.94965,-93.0845,19
"452","30014",2017-11-02,"Thu",6,8,-2,"22nd Ave S & Franklin Ave",44.96293,-93.241042,15
"453","30192",2017-11-02,"Thu",1,8,-7,"Cooke Hall",44.976303,-93.230029,15
"454","30001",2017-11-02,"Thu",2,2,0,"25th Street & 33rd Ave S",44.957341,-93.223374,15
"455","30062",2017-11-02,"Thu",1,2,-1,"Minneapolis Farmers Market",44.98052,-93.28542,15
"456","30097",2017-11-02,"Thu",1,0,1,"Pleasant Ave S &  Lake Street",44.948556,-93.283163,15
"457","30189",2017-11-02,"Thu",6,1,5,"Delaware Street SE & 26th Ave SE",44.972128,-93.221021,19
"458","30193",2017-11-02,"Thu",2,4,-2,"Mariucci Arena",44.977899,-93.226629,25
"459","30117",2017-11-02,"Thu",3,3,0,"10th Street E & Cedar Street",44.950189,-93.09759,15
"460","30144",2017-11-02,"Thu",1,0,1,"N 4th Ave & W River Parkway",44.988461,-93.269087,15
"461","30177",2017-11-02,"Thu",1,1,0,"3rd Street NE & Lowry Ave NE",45.01304,-93.264573,15
"462","30137",2017-11-02,"Thu",1,0,1,"Selby Ave & Virginia Street",44.9467,-93.1151,19
"463","NRHQ",2017-11-02,"Thu",2,1,1,"Nice Ride World Headquarters",44.953566,-93.220066,7
"464","30005",2017-11-02,"Thu",1,1,0,"Hennepin & Central Avenue NE",44.98889,-93.25392,15
"465","30095",2017-11-02,"Thu",1,0,1,"West 36th Street & Bryant Ave S",44.93775,-93.2912,15
"466","30003",2017-11-02,"Thu",1,1,0,"Plymouth Ave N &  N Oliver Ave",44.991412,-93.306269,15
"467","30116",2017-11-02,"Thu",1,1,0,"Minnesota History Center",44.949053,-93.10673,15
"468","30044",2017-11-02,"Thu",1,0,1,"26th Street & Hennepin",44.9554734,-93.29714298,15
"469","30126",2017-11-02,"Thu",1,0,1,"5th Street E & Minnesota Street N",44.94683,-93.09231,19
"470","30094",2017-11-02,"Thu",1,2,-1,"West 32nd Street & Bryant Ave S",44.94478,-93.29038,15
"471","30069",2017-11-02,"Thu",1,0,1,"Farview Park",45.005994,-93.287559,15
"472","30059",2017-11-02,"Thu",1,1,0,"Glenwood Ave & N Morgan Ave",44.981147,-93.304427,15
"473","30012",2017-11-02,"Thu",2,2,0,"Mpls Convention Center",44.970041,-93.275861,19
"474","30037",2017-11-02,"Thu",1,2,-1,"Currie Park",44.969225,-93.251136,15
"475","30028",2017-11-02,"Thu",2,5,-3,"Washington & Marquette",44.98087361,-93.26692522,19
"476","30170",2017-11-02,"Thu",1,2,-1,"Nicollet Island",44.985388,-93.26145,15
"477","30085",2017-11-02,"Thu",1,1,0,"Grand Ave & Fairview Ave",44.940513,-93.177093,15
"478","30182",2017-11-01,"Wed",5,4,1,"Sanford Hall",44.980831,-93.240282,23
"479","30046",2017-11-01,"Wed",9,2,7,"Washington Ave S & 10th Ave S",44.97654,-93.25535,19
"480","30115",2017-11-01,"Wed",26,28,-2,"Washington Ave SE & Union Street SE",44.97394,-93.2321,31
"481","30013",2017-11-01,"Wed",6,8,-2,"Lyndale Ave S & W 29th Street",44.94948465,-93.28822732,19
"482","30196",2017-11-01,"Wed",4,8,-4,"Civil Engineering",44.976096,-93.231958,23
"483","30194",2017-11-01,"Wed",5,7,-2,"23rd Ave SE & University Ave SE",44.974397,-93.223002,23
"484","30197",2017-11-01,"Wed",11,8,3,"15th Ave SE & 4th Street SE",44.979878,-93.234739,23
"485","30090",2017-11-01,"Wed",5,8,-3,"Portland Ave & Washington Ave",44.978068,-93.26023,19
"486","30156",2017-11-01,"Wed",1,0,1,"Lake Nokomis",44.915957,-93.242761,23
"487","30184",2017-11-01,"Wed",6,6,0,"Hennepin Ave & S Washington Ave",44.981895,-93.269195,23
"488","30027",2017-11-01,"Wed",7,4,3,"4th Street S & 19th Ave",44.97003,-93.24519,19
"489","30186",2017-11-01,"Wed",6,9,-3,"S 5th Street & Nicollet Mall",44.97866518,-93.27050328,19
"490","30048",2017-11-01,"Wed",3,3,0,"Dupont Ave & 22nd Street",44.96146,-93.29303,15
"491","30110",2017-11-01,"Wed",7,5,2,"15th Ave SE & Como Ave SE",44.987517,-93.230469,19
"492","30042",2017-11-01,"Wed",4,9,-5,"IDS Center",44.975641,-93.272185,23
"493","30057",2017-11-01,"Wed",12,13,-1,"McNamara Center",44.9743,-93.22854,19
"494","30031",2017-11-01,"Wed",6,6,0,"23rd Ave SE & 6th Street SE",44.977028,-93.221639,23
"495","30103",2017-11-01,"Wed",2,2,0,"Hague Ave & Dale Street",44.945736,-93.12661,15
"496","30160",2017-11-01,"Wed",3,0,3,"Dupont Ave S & W 29th Street",44.949699,-93.293129,15
"497","30099",2017-11-01,"Wed",2,1,1,"Kowalski's Market",44.94010259,-93.15315127,15
"498","30195",2017-11-01,"Wed",30,32,-2,"Willey Hall",44.972404,-93.242891,23
"499","30063",2017-11-01,"Wed",1,1,0,"Elliot Park",44.970553,-93.26079,15
"500","30192",2017-11-01,"Wed",3,5,-2,"Cooke Hall",44.976303,-93.230029,15
"501","30024",2017-11-01,"Wed",17,16,1,"Coffman Union",44.973378,-93.234762,35
"502","30025",2017-11-01,"Wed",10,16,-6,"Williamson Hall",44.977406,-93.234911,25
"503","30015",2017-11-01,"Wed",6,5,1,"Washington & Cedar",44.97344,-93.24748,20
"504","30047",2017-11-01,"Wed",4,4,0,"University & Bank Street SE",44.98717,-93.25576,19
"505","30093",2017-11-01,"Wed",3,2,1,"West 15th Street & Willow",44.968237,-93.281991,23
"506","30019",2017-11-01,"Wed",20,21,-1,"Social Sciences",44.97063898,-93.24355245,27
"507","30014",2017-11-01,"Wed",6,3,3,"22nd Ave S & Franklin Ave",44.96293,-93.241042,15
"508","30058",2017-11-01,"Wed",4,7,-3,"Elliot Hall",44.97685,-93.23818,15
"509","30028",2017-11-01,"Wed",3,5,-2,"Washington & Marquette",44.98087361,-93.26692522,19
"510","30202",2017-11-01,"Wed",8,5,3,"Mill City Quarter",44.9805,-93.2618,23
"511","30034",2017-11-01,"Wed",9,8,1,"Oak Street Ramp",44.97202,-93.22697,23
"512","30189",2017-11-01,"Wed",8,5,3,"Delaware Street SE & 26th Ave SE",44.972128,-93.221021,19
"513","30039",2017-11-01,"Wed",4,5,-1,"10th Street & Nicollet Mall",44.973839,-93.274544,19
"514","30050",2017-11-01,"Wed",13,10,3,"2nd Ave S & S 3rd Street",44.97974,-93.26599,27
"515","30188",2017-11-01,"Wed",3,4,-1,"S 8th Street & 2nd Ave S",44.974795,-93.270649,19
"516","30026",2017-11-01,"Wed",10,9,1,"Mayo Memorial Building",44.97209,-93.23206,25
"517","30056",2017-11-01,"Wed",4,2,2,"Target Field Station",44.98412539,-93.27903807,19
"518","30091",2017-11-01,"Wed",7,6,1,"Gateway Park",44.9825943,-93.2675139,19
"519","30009",2017-11-01,"Wed",9,4,5,"4th Street & 13th Ave SE",44.98102,-93.23746,27
"520","30029",2017-11-01,"Wed",5,12,-7,"Hennepin County Government Center",44.976602,-93.266701,41
"521","30002",2017-11-01,"Wed",4,5,-1,"Riverside Ave & 23rd Ave S",44.967115,-93.240149,15
"522","30143",2017-11-01,"Wed",3,2,1,"Chicago Ave & S Washington Ave",44.977521,-93.256736,19
"523","30176",2017-11-01,"Wed",2,3,-1,"Washington Ave N & Cedar Lake Trail",44.985406,-93.274031,19
"524","30083",2017-11-01,"Wed",1,1,0,"Wilder Street & Marshall Ave",44.948147,-93.185819,15
"525","30043",2017-11-01,"Wed",1,0,1,"Lake Street & Humboldt",44.94865,-93.30077,19
"526","30040",2017-11-01,"Wed",2,0,2,"11th Street & Marquette",44.97265,-93.27405,19
"527","30130",2017-11-01,"Wed",3,2,1,"Wabasha Street S & E Fillmore Ave",44.94065697,-93.09000671,17
"528","30081",2017-11-01,"Wed",3,3,0,"East Lake Street & 36th Ave S",44.94826,-93.22106,15
"529","30008",2017-11-01,"Wed",5,5,0,"Midtown Exchange",44.94859,-93.2602,19
"530","30064",2017-11-01,"Wed",1,1,0,"28th Street & Nicollet Ave. S",44.9519,-93.27831,15
"531","30032",2017-11-01,"Wed",11,7,4,"4th Street & 17th Ave SE",44.97913,-93.23189,15
"532","30181",2017-11-01,"Wed",2,3,-1,"5th Ave N & 4th Street N",44.98446,-93.277234,23
"533","30075",2017-11-01,"Wed",1,1,0,"Curfew Street & Ellis Ave.",44.96616,-93.20525,15
"534","30123",2017-11-01,"Wed",2,2,0,"Minnesota Dept. of Transportation",44.95385,-93.10445,15
"535","30051",2017-11-01,"Wed",7,8,-1,"7th Street & 4th Ave S",44.97497,-93.266684,15
"536","30074",2017-11-01,"Wed",9,8,1,"27th Ave SE & University Ave",44.97259,-93.218919,15
"537","30035",2017-11-01,"Wed",3,2,1,"Loring Park",44.9715,-93.284927,15
"538","30154",2017-11-01,"Wed",4,6,-2,"11th Ave S & S 2nd Street",44.97673,-93.252189,23
"539","30183",2017-11-01,"Wed",18,27,-9,"Weisman Art Museum",44.973607,-93.237254,19
"540","30086",2017-11-01,"Wed",2,0,2,"Macalester College",44.940218,-93.17022,15
"541","30054",2017-11-01,"Wed",2,2,0,"Midtown Greenway & 5th Ave S",44.950371,-93.269278,15
"542","30092",2017-11-01,"Wed",1,1,0,"2nd Street N & 8th Ave N",44.98961164,-93.27718735,19
"543","30198",2017-11-01,"Wed",1,1,0,"Bohemian Flats",44.976223,-93.2416,15
"544","30179",2017-11-01,"Wed",1,1,0,"Park Ave & 4th Street S",44.97589503,-93.25998902,27
"545","30087",2017-11-01,"Wed",2,3,-1,"Grant Street & Portland Ave",44.96954,-93.2669,15
"546","30147",2017-11-01,"Wed",4,2,2,"Lake Street & West River Parkway",44.948452,-93.206201,15
"547","30178",2017-11-01,"Wed",1,0,1,"5th Street NE & 1st Ave NE",44.990328,-93.254295,15
"548","NRHQ",2017-11-01,"Wed",1,1,0,"Nice Ride World Headquarters",44.953566,-93.220066,7
"549","30190",2017-11-01,"Wed",3,2,1,"7th Street SE & 10th Ave SE",44.985576,-93.238743,15
"550","30004",2017-11-01,"Wed",3,0,3,"11th Street & Hennepin",44.97534,-93.27869,23
"551","30085",2017-11-01,"Wed",2,2,0,"Grand Ave & Fairview Ave",44.940513,-93.177093,15
"552","30001",2017-11-01,"Wed",3,2,1,"25th Street & 33rd Ave S",44.957341,-93.223374,15
"553","30067",2017-11-01,"Wed",1,0,1,"Bryant Ave N & West Broadway",44.999341,-93.290941,15
"554","30187",2017-11-01,"Wed",6,3,3,"Groveland Ave & Clifton Place",44.966145,-93.286294,19
"555","30053",2017-11-01,"Wed",1,1,0,"2nd Ave N & N 6th Street",44.980536,-93.275626,23
"556","30193",2017-11-01,"Wed",5,5,0,"Mariucci Arena",44.977899,-93.226629,25
"557","30030",2017-11-01,"Wed",5,3,2,"South 2nd Street & 3rd Ave S",44.98092673,-93.26345444,23
"558","30062",2017-11-01,"Wed",1,2,-1,"Minneapolis Farmers Market",44.98052,-93.28542,15
"559","30174",2017-11-01,"Wed",1,1,0,"Hiawatha Ave & E 50th Street",44.91294254,-93.21014017,15
"560","30037",2017-11-01,"Wed",3,2,1,"Currie Park",44.969225,-93.251136,15
"561","30180",2017-11-01,"Wed",4,3,1,"3rd Street N & 8th Ave N",44.987996,-93.279854,19
"562","30117",2017-11-01,"Wed",1,3,-2,"10th Street E & Cedar Street",44.950189,-93.09759,15
"563","30141",2017-11-01,"Wed",1,0,1,"N Robert Street & E 10th Street",44.951132,-93.094545,19
"564","30088",2017-11-01,"Wed",12,9,3,"6th Ave SE & University Ave",44.983281,-93.24812,27
"565","30191",2017-11-01,"Wed",1,0,1,"University Ave SE & Bedford Street SE",44.96876,-93.21003,15
"566","30011",2017-11-01,"Wed",8,2,6,"North 2nd Street & 4th Ave N",44.986087,-93.272459,19
"567","30006",2017-11-01,"Wed",3,3,0,"YWCA Downtown",44.972217,-93.276435,23
"568","30045",2017-11-01,"Wed",2,2,0,"Franklin & 28th Ave",44.962701,-93.230893,19
"569","30017",2017-11-01,"Wed",2,5,-3,"Lyndale Ave S & 22nd Street ",44.960744,-93.28815,19
"570","30096",2017-11-01,"Wed",1,0,1,"University Ave NE & 12th Ave NE",44.999874,-93.262955,15
"571","30116",2017-11-01,"Wed",3,0,3,"Minnesota History Center",44.949053,-93.10673,15
"572","30038",2017-11-01,"Wed",2,4,-2,"E Franklin Ave & Bloomington Ave S",44.96285,-93.252269,15
"573","30137",2017-11-01,"Wed",1,0,1,"Selby Ave & Virginia Street",44.9467,-93.1151,19
"574","30052",2017-11-01,"Wed",2,1,1,"Nicollet Mall & Grant Street",44.96995,-93.278133,15
"575","30041",2017-11-01,"Wed",2,2,0,"Franklin & Portland",44.962846,-93.267526,15
"576","30012",2017-11-01,"Wed",2,2,0,"Mpls Convention Center",44.970041,-93.275861,19
"577","30065",2017-11-01,"Wed",2,3,-1,"N Washington Ave & 9th Ave N",44.98987911,-93.27978373,15
"578","30177",2017-11-01,"Wed",1,0,1,"3rd Street NE & Lowry Ave NE",45.01304,-93.264573,15
"579","30003",2017-11-01,"Wed",1,1,0,"Plymouth Ave N &  N Oliver Ave",44.991412,-93.306269,15
"580","30000",2017-11-01,"Wed",1,1,0,"100 Main Street SE",44.984892,-93.256551,27
"581","30060",2017-11-01,"Wed",2,3,-1,"Nicollet & Franklin",44.96342,-93.277939,23
"582","30010",2017-11-01,"Wed",2,1,1,"Hennepin & Laurel Ave",44.97391,-93.28305,15
"583","30005",2017-11-01,"Wed",1,1,0,"Hennepin & Central Avenue NE",44.98889,-93.25392,15
"584","30171",2017-11-01,"Wed",2,1,1,"SE 3rd Ave & University Ave SE",44.985465,-93.252102,15
"585","30059",2017-11-01,"Wed",1,2,-1,"Glenwood Ave & N Morgan Ave",44.981147,-93.304427,15
"586","30170",2017-11-01,"Wed",1,1,0,"Nicollet Island",44.985388,-93.26145,15
"587","30145",2017-11-01,"Wed",1,2,-1,"Minneapolis Park & Recreation Board",45.00095,-93.277037,15
"588","30185",2017-11-01,"Wed",1,1,0,"5th Street NE & 3rd Ave NE",44.991821,-93.255558,15
"589","30044",2017-11-01,"Wed",1,0,1,"26th Street & Hennepin",44.9554734,-93.29714298,15
"590","30094",2017-11-01,"Wed",2,2,0,"West 32nd Street & Bryant Ave S",44.94478,-93.29038,15
"591","30021",2017-11-01,"Wed",1,5,-4,"2nd Ave N & Washington Ave N",44.98383,-93.27099,19
"592","30127",2017-11-01,"Wed",1,2,-1,"Landmark Plaza",44.945267,-93.096114,15
"593","30097",2017-11-01,"Wed",2,0,2,"Pleasant Ave S &  Lake Street",44.948556,-93.283163,15
"594","30095",2017-11-01,"Wed",1,0,1,"West 36th Street & Bryant Ave S",44.93775,-93.2912,15
"595","30104",2017-11-01,"Wed",1,1,0,"Logan Park",44.99882,-93.25276,23
"596","30049",2017-11-01,"Wed",1,0,1,"Nicollet Ave & W 37th Street",44.93531794,-93.27807784,15
"597","30024",2017-10-31,"Tue",22,17,5,"Coffman Union",44.973378,-93.234762,35
"598","30052",2017-10-31,"Tue",3,2,1,"Nicollet Mall & Grant Street",44.96995,-93.278133,15
"599","30025",2017-10-31,"Tue",18,19,-1,"Williamson Hall",44.977406,-93.234911,25
"600","30034",2017-10-31,"Tue",8,11,-3,"Oak Street Ramp",44.97202,-93.22697,23
"601","30197",2017-10-31,"Tue",22,16,6,"15th Ave SE & 4th Street SE",44.979878,-93.234739,23
"602","30183",2017-10-31,"Tue",29,30,-1,"Weisman Art Museum",44.973607,-93.237254,19
"603","30186",2017-10-31,"Tue",20,18,2,"S 5th Street & Nicollet Mall",44.97866518,-93.27050328,19
"604","30043",2017-10-31,"Tue",1,1,0,"Lake Street & Humboldt",44.94865,-93.30077,19
"605","30176",2017-10-31,"Tue",6,6,0,"Washington Ave N & Cedar Lake Trail",44.985406,-93.274031,19
"606","30110",2017-10-31,"Tue",14,10,4,"15th Ave SE & Como Ave SE",44.987517,-93.230469,19
"607","30037",2017-10-31,"Tue",2,3,-1,"Currie Park",44.969225,-93.251136,15
"608","30179",2017-10-31,"Tue",2,4,-2,"Park Ave & 4th Street S",44.97589503,-93.25998902,27
"609","30096",2017-10-31,"Tue",2,2,0,"University Ave NE & 12th Ave NE",44.999874,-93.262955,15
"610","30136",2017-10-31,"Tue",2,0,2,"Science Museum of Minnesota",44.942846,-93.097836,15
"611","30017",2017-10-31,"Tue",6,5,1,"Lyndale Ave S & 22nd Street ",44.960744,-93.28815,19
"612","30086",2017-10-31,"Tue",1,0,1,"Macalester College",44.940218,-93.17022,15
"613","30195",2017-10-31,"Tue",30,28,2,"Willey Hall",44.972404,-93.242891,23
"614","30127",2017-10-31,"Tue",4,5,-1,"Landmark Plaza",44.945267,-93.096114,15
"615","30074",2017-10-31,"Tue",15,9,6,"27th Ave SE & University Ave",44.97259,-93.218919,15
"616","30103",2017-10-31,"Tue",3,3,0,"Hague Ave & Dale Street",44.945736,-93.12661,15
"617","30019",2017-10-31,"Tue",25,22,3,"Social Sciences",44.97063898,-93.24355245,27
"618","30163",2017-10-31,"Tue",1,0,1,"38th Street Light Rail Station",44.93434,-93.229338,15
"619","30060",2017-10-31,"Tue",6,8,-2,"Nicollet & Franklin",44.96342,-93.277939,23
"620","30009",2017-10-31,"Tue",11,12,-1,"4th Street & 13th Ave SE",44.98102,-93.23746,27
"621","30093",2017-10-31,"Tue",9,12,-3,"West 15th Street & Willow",44.968237,-93.281991,23
"622","30004",2017-10-31,"Tue",4,3,1,"11th Street & Hennepin",44.97534,-93.27869,23
"623","30142",2017-10-31,"Tue",2,3,-1,"9th Street N & Hawthorne Ave",44.97731428,-93.27776134,27
"624","30028",2017-10-31,"Tue",2,4,-2,"Washington & Marquette",44.98087361,-93.26692522,19
"625","30007",2017-10-31,"Tue",7,5,2,"9th Street & 4th Ave",44.97265,-93.26872,19
"626","30063",2017-10-31,"Tue",3,2,1,"Elliot Park",44.970553,-93.26079,15
"627","30006",2017-10-31,"Tue",4,6,-2,"YWCA Downtown",44.972217,-93.276435,23
"628","30194",2017-10-31,"Tue",6,9,-3,"23rd Ave SE & University Ave SE",44.974397,-93.223002,23
"629","30181",2017-10-31,"Tue",4,5,-1,"5th Ave N & 4th Street N",44.98446,-93.277234,23
"630","30057",2017-10-31,"Tue",16,18,-2,"McNamara Center",44.9743,-93.22854,19
"631","30188",2017-10-31,"Tue",3,6,-3,"S 8th Street & 2nd Ave S",44.974795,-93.270649,19
"632","30115",2017-10-31,"Tue",29,28,1,"Washington Ave SE & Union Street SE",44.97394,-93.2321,31
"633","30039",2017-10-31,"Tue",8,8,0,"10th Street & Nicollet Mall",44.973839,-93.274544,19
"634","30015",2017-10-31,"Tue",6,7,-1,"Washington & Cedar",44.97344,-93.24748,20
"635","30045",2017-10-31,"Tue",8,6,2,"Franklin & 28th Ave",44.962701,-93.230893,19
"636","30190",2017-10-31,"Tue",4,4,0,"7th Street SE & 10th Ave SE",44.985576,-93.238743,15
"637","30026",2017-10-31,"Tue",12,15,-3,"Mayo Memorial Building",44.97209,-93.23206,25
"638","30196",2017-10-31,"Tue",9,9,0,"Civil Engineering",44.976096,-93.231958,23
"639","30091",2017-10-31,"Tue",8,9,-1,"Gateway Park",44.9825943,-93.2675139,19
"640","30046",2017-10-31,"Tue",8,6,2,"Washington Ave S & 10th Ave S",44.97654,-93.25535,19
"641","30189",2017-10-31,"Tue",8,9,-1,"Delaware Street SE & 26th Ave SE",44.972128,-93.221021,19
"642","30058",2017-10-31,"Tue",14,9,5,"Elliot Hall",44.97685,-93.23818,15
"643","30099",2017-10-31,"Tue",1,2,-1,"Kowalski's Market",44.94010259,-93.15315127,15
"644","30089",2017-10-31,"Tue",3,4,-1,"Lake Calhoun Center",44.94846717,-93.31729442,27
"645","30087",2017-10-31,"Tue",5,4,1,"Grant Street & Portland Ave",44.96954,-93.2669,15
"646","30047",2017-10-31,"Tue",4,3,1,"University & Bank Street SE",44.98717,-93.25576,19
"647","30154",2017-10-31,"Tue",8,3,5,"11th Ave S & S 2nd Street",44.97673,-93.252189,23
"648","30192",2017-10-31,"Tue",6,7,-1,"Cooke Hall",44.976303,-93.230029,15
"649","30027",2017-10-31,"Tue",12,8,4,"4th Street S & 19th Ave",44.97003,-93.24519,19
"650","30083",2017-10-31,"Tue",1,0,1,"Wilder Street & Marshall Ave",44.948147,-93.185819,15
"651","30202",2017-10-31,"Tue",11,15,-4,"Mill City Quarter",44.9805,-93.2618,23
"652","30132",2017-10-31,"Tue",3,1,2,"Kellogg Blvd & Wabasha Street",44.943846,-93.09227,15
"653","30050",2017-10-31,"Tue",12,10,2,"2nd Ave S & S 3rd Street",44.97974,-93.26599,27
"654","30106",2017-10-31,"Tue",1,1,0,"Dale Street & Grand Ave.",44.939779,-93.126261,15
"655","30053",2017-10-31,"Tue",4,3,1,"2nd Ave N & N 6th Street",44.980536,-93.275626,23
"656","30051",2017-10-31,"Tue",6,7,-1,"7th Street & 4th Ave S",44.97497,-93.266684,15
"657","30029",2017-10-31,"Tue",14,17,-3,"Hennepin County Government Center",44.976602,-93.266701,41
"658","30056",2017-10-31,"Tue",4,2,2,"Target Field Station",44.98412539,-93.27903807,19
"659","30085",2017-10-31,"Tue",2,2,0,"Grand Ave & Fairview Ave",44.940513,-93.177093,15
"660","30092",2017-10-31,"Tue",2,2,0,"2nd Street N & 8th Ave N",44.98961164,-93.27718735,19
"661","30000",2017-10-31,"Tue",4,4,0,"100 Main Street SE",44.984892,-93.256551,27
"662","30090",2017-10-31,"Tue",7,7,0,"Portland Ave & Washington Ave",44.978068,-93.26023,19
"663","30013",2017-10-31,"Tue",3,4,-1,"Lyndale Ave S & W 29th Street",44.94948465,-93.28822732,19
"664","30180",2017-10-31,"Tue",2,4,-2,"3rd Street N & 8th Ave N",44.987996,-93.279854,19
"665","30049",2017-10-31,"Tue",1,1,0,"Nicollet Ave & W 37th Street",44.93531794,-93.27807784,15
"666","30184",2017-10-31,"Tue",6,6,0,"Hennepin Ave & S Washington Ave",44.981895,-93.269195,23
"667","30105",2017-10-31,"Tue",1,0,1,"Lexington Pkwy & University Ave",44.955363,-93.146379,15
"668","30048",2017-10-31,"Tue",2,5,-3,"Dupont Ave & 22nd Street",44.96146,-93.29303,15
"669","30094",2017-10-31,"Tue",3,1,2,"West 32nd Street & Bryant Ave S",44.94478,-93.29038,15
"670","30182",2017-10-31,"Tue",5,12,-7,"Sanford Hall",44.980831,-93.240282,23
"671","30130",2017-10-31,"Tue",4,5,-1,"Wabasha Street S & E Fillmore Ave",44.94065697,-93.09000671,17
"672","30170",2017-10-31,"Tue",4,2,2,"Nicollet Island",44.985388,-93.26145,15
"673","30118",2017-10-31,"Tue",2,0,2,"7th Place & Jackson Street",44.949433,-93.091207,15
"674","30161",2017-10-31,"Tue",1,2,-1,"27th Ave S & Minnehaha Ave",44.947329,-93.233092,15
"675","30042",2017-10-31,"Tue",11,9,2,"IDS Center",44.975641,-93.272185,23
"676","30111",2017-10-31,"Tue",1,0,1,"Hamline Ave N & University Ave",44.9559764,-93.15670252,15
"677","30040",2017-10-31,"Tue",4,3,1,"11th Street & Marquette",44.97265,-93.27405,19
"678","30075",2017-10-31,"Tue",2,1,1,"Curfew Street & Ellis Ave.",44.96616,-93.20525,15
"679","30088",2017-10-31,"Tue",12,18,-6,"6th Ave SE & University Ave",44.983281,-93.24812,27
"680","30148",2017-10-31,"Tue",1,0,1,"46th Street Light Rail Station",44.920466,-93.21953,15
"681","30021",2017-10-31,"Tue",2,2,0,"2nd Ave N & Washington Ave N",44.98383,-93.27099,19
"682","30012",2017-10-31,"Tue",3,6,-3,"Mpls Convention Center",44.970041,-93.275861,19
"683","30144",2017-10-31,"Tue",2,1,1,"N 4th Ave & W River Parkway",44.988461,-93.269087,15
"684","30065",2017-10-31,"Tue",2,2,0,"N Washington Ave & 9th Ave N",44.98987911,-93.27978373,15
"685","30041",2017-10-31,"Tue",6,1,5,"Franklin & Portland",44.962846,-93.267526,15
"686","30010",2017-10-31,"Tue",3,3,0,"Hennepin & Laurel Ave",44.97391,-93.28305,15
"687","30139",2017-10-31,"Tue",1,1,0,"E 14th Street & N Robert Street ",44.954697,-93.097817,15
"688","30035",2017-10-31,"Tue",2,2,0,"Loring Park",44.9715,-93.284927,15
"689","30147",2017-10-31,"Tue",2,3,-1,"Lake Street & West River Parkway",44.948452,-93.206201,15
"690","30030",2017-10-31,"Tue",5,1,4,"South 2nd Street & 3rd Ave S",44.98092673,-93.26345444,23
"691","30031",2017-10-31,"Tue",3,2,1,"23rd Ave SE & 6th Street SE",44.977028,-93.221639,23
"692","30054",2017-10-31,"Tue",1,0,1,"Midtown Greenway & 5th Ave S",44.950371,-93.269278,15
"693","30140",2017-10-31,"Tue",1,0,1,"Rice Street & University Ave W",44.95562146,-93.10574323,15
"694","30014",2017-10-31,"Tue",6,5,1,"22nd Ave S & Franklin Ave",44.96293,-93.241042,15
"695","30066",2017-10-31,"Tue",1,0,1,"Wirth Beach",44.9798,-93.322066,15
"696","30117",2017-10-31,"Tue",2,4,-2,"10th Street E & Cedar Street",44.950189,-93.09759,15
"697","30032",2017-10-31,"Tue",12,8,4,"4th Street & 17th Ave SE",44.97913,-93.23189,15
"698","30120",2017-10-31,"Tue",1,2,-1,"Kellogg Blvd E & Jackson Street",44.946191,-93.088802,15
"699","30178",2017-10-31,"Tue",1,1,0,"5th Street NE & 1st Ave NE",44.990328,-93.254295,15
"700","30187",2017-10-31,"Tue",3,5,-2,"Groveland Ave & Clifton Place",44.966145,-93.286294,19
"701","30191",2017-10-31,"Tue",1,1,0,"University Ave SE & Bedford Street SE",44.96876,-93.21003,15
"702","30002",2017-10-31,"Tue",2,4,-2,"Riverside Ave & 23rd Ave S",44.967115,-93.240149,15
"703","30122",2017-10-31,"Tue",2,4,-2,"Broadway Street N & 4th Street E",44.94965,-93.0845,19
"704","30016",2017-10-31,"Tue",2,2,0,"Walker Art Center",44.96710368,-93.2890749,23
"705","30101",2017-10-31,"Tue",2,1,1,"N Milton Street & Summit Ave",44.941599,-93.138832,15
"706","30128",2017-10-31,"Tue",2,2,0,"Wells Fargo Place",44.94813,-93.09663,15
"707","30171",2017-10-31,"Tue",5,6,-1,"SE 3rd Ave & University Ave SE",44.985465,-93.252102,15
"708","30193",2017-10-31,"Tue",2,3,-1,"Mariucci Arena",44.977899,-93.226629,25
"709","30155",2017-10-31,"Tue",1,0,1,"University of St. Thomas",44.93992412,-93.19278225,15
"710","30067",2017-10-31,"Tue",1,1,0,"Bryant Ave N & West Broadway",44.999341,-93.290941,15
"711","30126",2017-10-31,"Tue",2,3,-1,"5th Street E & Minnesota Street N",44.94683,-93.09231,19
"712","NRHQ",2017-10-31,"Tue",2,3,-1,"Nice Ride World Headquarters",44.953566,-93.220066,7
"713","30125",2017-10-31,"Tue",3,1,2,"Cedar Street & Columbus Ave",44.95235098,-93.09954867,15
"714","30168",2017-10-31,"Tue",1,1,0,"Marshall Street NE & Lowry Ave",45.01312,-93.27166,15
"715","30001",2017-10-31,"Tue",2,4,-2,"25th Street & 33rd Ave S",44.957341,-93.223374,15
"716","30011",2017-10-31,"Tue",6,3,3,"North 2nd Street & 4th Ave N",44.986087,-93.272459,19
"717","30018",2017-10-31,"Tue",2,2,0,"MCAD",44.957214,-93.274981,17
"718","30143",2017-10-31,"Tue",3,7,-4,"Chicago Ave & S Washington Ave",44.977521,-93.256736,19
"719","30141",2017-10-31,"Tue",1,2,-1,"N Robert Street & E 10th Street",44.951132,-93.094545,19
"720","30062",2017-10-31,"Tue",1,0,1,"Minneapolis Farmers Market",44.98052,-93.28542,15
"721","30167",2017-10-31,"Tue",1,1,0,"E 38th Street & 42nd Ave S",44.9342,-93.2125,15
"722","30137",2017-10-31,"Tue",3,0,3,"Selby Ave & Virginia Street",44.9467,-93.1151,19
"723","30059",2017-10-31,"Tue",2,2,0,"Glenwood Ave & N Morgan Ave",44.981147,-93.304427,15
"724","30131",2017-10-31,"Tue",2,0,2,"Harriet Island",44.93768,-93.094532,19
"725","30129",2017-10-31,"Tue",1,1,0,"Shepard Road & Sibley Street",44.94638658,-93.08343261,15
"726","30177",2017-10-31,"Tue",1,0,1,"3rd Street NE & Lowry Ave NE",45.01304,-93.264573,15
"727","30003",2017-10-31,"Tue",1,1,0,"Plymouth Ave N &  N Oliver Ave",44.991412,-93.306269,15
"728","30097",2017-10-31,"Tue",2,1,1,"Pleasant Ave S &  Lake Street",44.948556,-93.283163,15
"729","30081",2017-10-31,"Tue",1,0,1,"East Lake Street & 36th Ave S",44.94826,-93.22106,15
"730","30160",2017-10-31,"Tue",1,1,0,"Dupont Ave S & W 29th Street",44.949699,-93.293129,15
"731","30185",2017-10-31,"Tue",1,1,0,"5th Street NE & 3rd Ave NE",44.991821,-93.255558,15
"732","30044",2017-10-31,"Tue",1,0,1,"26th Street & Hennepin",44.9554734,-93.29714298,15
"733","30098",2017-10-31,"Tue",1,0,1,"Marshall Street NE & 8th Ave NE",44.995348,-93.266854,15
"734","30197",2017-10-30,"Mon",11,12,-1,"15th Ave SE & 4th Street SE",44.979878,-93.234739,23
"735","30029",2017-10-30,"Mon",24,21,3,"Hennepin County Government Center",44.976602,-93.266701,41
"736","30041",2017-10-30,"Mon",3,4,-1,"Franklin & Portland",44.962846,-93.267526,15
"737","30186",2017-10-30,"Mon",11,9,2,"S 5th Street & Nicollet Mall",44.97866518,-93.27050328,19
"738","30115",2017-10-30,"Mon",40,34,6,"Washington Ave SE & Union Street SE",44.97394,-93.2321,31
"739","30196",2017-10-30,"Mon",6,9,-3,"Civil Engineering",44.976096,-93.231958,23
"740","30045",2017-10-30,"Mon",5,5,0,"Franklin & 28th Ave",44.962701,-93.230893,19
"741","30020",2017-10-30,"Mon",2,2,0,"YWCA Uptown",44.95131,-93.29853,19
"742","30073",2017-10-30,"Mon",2,1,1,"West 34th Street  & Hennepin Ave S",44.941388,-93.298634,19
"743","30114",2017-10-30,"Mon",1,1,0,"3rd Ave S & E 38th Street",44.93387867,-93.27260882,11
"744","30088",2017-10-30,"Mon",20,16,4,"6th Ave SE & University Ave",44.983281,-93.24812,27
"745","30096",2017-10-30,"Mon",1,2,-1,"University Ave NE & 12th Ave NE",44.999874,-93.262955,15
"746","30110",2017-10-30,"Mon",8,8,0,"15th Ave SE & Como Ave SE",44.987517,-93.230469,19
"747","30032",2017-10-30,"Mon",13,11,2,"4th Street & 17th Ave SE",44.97913,-93.23189,15
"748","30021",2017-10-30,"Mon",4,2,2,"2nd Ave N & Washington Ave N",44.98383,-93.27099,19
"749","30091",2017-10-30,"Mon",11,13,-2,"Gateway Park",44.9825943,-93.2675139,19
"750","30010",2017-10-30,"Mon",3,2,1,"Hennepin & Laurel Ave",44.97391,-93.28305,15
"751","30175",2017-10-30,"Mon",1,0,1,"18th Ave Trail & 2nd Street NE",45.006321,-93.266553,15
"752","30034",2017-10-30,"Mon",13,10,3,"Oak Street Ramp",44.97202,-93.22697,23
"753","30179",2017-10-30,"Mon",6,7,-1,"Park Ave & 4th Street S",44.97589503,-93.25998902,27
"754","30063",2017-10-30,"Mon",4,2,2,"Elliot Park",44.970553,-93.26079,15
"755","30093",2017-10-30,"Mon",11,8,3,"West 15th Street & Willow",44.968237,-93.281991,23
"756","30064",2017-10-30,"Mon",3,4,-1,"28th Street & Nicollet Ave. S",44.9519,-93.27831,15
"757","30057",2017-10-30,"Mon",14,23,-9,"McNamara Center",44.9743,-93.22854,19
"758","30025",2017-10-30,"Mon",21,21,0,"Williamson Hall",44.977406,-93.234911,25
"759","30006",2017-10-30,"Mon",4,4,0,"YWCA Downtown",44.972217,-93.276435,23
"760","30027",2017-10-30,"Mon",10,5,5,"4th Street S & 19th Ave",44.97003,-93.24519,19
"761","30026",2017-10-30,"Mon",10,10,0,"Mayo Memorial Building",44.97209,-93.23206,25
"762","30202",2017-10-30,"Mon",8,3,5,"Mill City Quarter",44.9805,-93.2618,23
"763","30182",2017-10-30,"Mon",8,7,1,"Sanford Hall",44.980831,-93.240282,23
"764","30024",2017-10-30,"Mon",24,19,5,"Coffman Union",44.973378,-93.234762,35
"765","30195",2017-10-30,"Mon",28,35,-7,"Willey Hall",44.972404,-93.242891,23
"766","30018",2017-10-30,"Mon",2,5,-3,"MCAD",44.957214,-93.274981,17
"767","30016",2017-10-30,"Mon",1,1,0,"Walker Art Center",44.96710368,-93.2890749,23
"768","30011",2017-10-30,"Mon",8,2,6,"North 2nd Street & 4th Ave N",44.986087,-93.272459,19
"769","30031",2017-10-30,"Mon",7,5,2,"23rd Ave SE & 6th Street SE",44.977028,-93.221639,23
"770","30019",2017-10-30,"Mon",24,26,-2,"Social Sciences",44.97063898,-93.24355245,27
"771","30046",2017-10-30,"Mon",5,6,-1,"Washington Ave S & 10th Ave S",44.97654,-93.25535,19
"772","30013",2017-10-30,"Mon",6,5,1,"Lyndale Ave S & W 29th Street",44.94948465,-93.28822732,19
"773","30058",2017-10-30,"Mon",10,8,2,"Elliot Hall",44.97685,-93.23818,15
"774","30184",2017-10-30,"Mon",5,5,0,"Hennepin Ave & S Washington Ave",44.981895,-93.269195,23
"775","30183",2017-10-30,"Mon",31,29,2,"Weisman Art Museum",44.973607,-93.237254,19
"776","30007",2017-10-30,"Mon",4,6,-2,"9th Street & 4th Ave",44.97265,-93.26872,19
"777","30015",2017-10-30,"Mon",4,7,-3,"Washington & Cedar",44.97344,-93.24748,20
"778","30050",2017-10-30,"Mon",8,10,-2,"2nd Ave S & S 3rd Street",44.97974,-93.26599,27
"779","30056",2017-10-30,"Mon",3,0,3,"Target Field Station",44.98412539,-93.27903807,19
"780","30191",2017-10-30,"Mon",2,2,0,"University Ave SE & Bedford Street SE",44.96876,-93.21003,15
"781","30085",2017-10-30,"Mon",2,1,1,"Grand Ave & Fairview Ave",44.940513,-93.177093,15
"782","30074",2017-10-30,"Mon",11,8,3,"27th Ave SE & University Ave",44.97259,-93.218919,15
"783","30181",2017-10-30,"Mon",3,3,0,"5th Ave N & 4th Street N",44.98446,-93.277234,23
"784","30042",2017-10-30,"Mon",10,8,2,"IDS Center",44.975641,-93.272185,23
"785","30044",2017-10-30,"Mon",2,2,0,"26th Street & Hennepin",44.9554734,-93.29714298,15
"786","30039",2017-10-30,"Mon",3,9,-6,"10th Street & Nicollet Mall",44.973839,-93.274544,19
"787","30037",2017-10-30,"Mon",1,6,-5,"Currie Park",44.969225,-93.251136,15
"788","30009",2017-10-30,"Mon",10,10,0,"4th Street & 13th Ave SE",44.98102,-93.23746,27
"789","30053",2017-10-30,"Mon",1,4,-3,"2nd Ave N & N 6th Street",44.980536,-93.275626,23
"790","30035",2017-10-30,"Mon",4,1,3,"Loring Park",44.9715,-93.284927,15
"791","30052",2017-10-30,"Mon",2,1,1,"Nicollet Mall & Grant Street",44.96995,-93.278133,15
"792","30154",2017-10-30,"Mon",8,10,-2,"11th Ave S & S 2nd Street",44.97673,-93.252189,23
"793","30004",2017-10-30,"Mon",1,0,1,"11th Street & Hennepin",44.97534,-93.27869,23
"794","30028",2017-10-30,"Mon",4,8,-4,"Washington & Marquette",44.98087361,-93.26692522,19
"795","NRHQ",2017-10-30,"Mon",2,2,0,"Nice Ride World Headquarters",44.953566,-93.220066,7
"796","30051",2017-10-30,"Mon",6,9,-3,"7th Street & 4th Ave S",44.97497,-93.266684,15
"797","30047",2017-10-30,"Mon",8,3,5,"University & Bank Street SE",44.98717,-93.25576,19
"798","30127",2017-10-30,"Mon",7,8,-1,"Landmark Plaza",44.945267,-93.096114,15
"799","30145",2017-10-30,"Mon",2,2,0,"Minneapolis Park & Recreation Board",45.00095,-93.277037,15
"800","30048",2017-10-30,"Mon",2,2,0,"Dupont Ave & 22nd Street",44.96146,-93.29303,15
"801","30143",2017-10-30,"Mon",5,5,0,"Chicago Ave & S Washington Ave",44.977521,-93.256736,19
"802","30040",2017-10-30,"Mon",6,5,1,"11th Street & Marquette",44.97265,-93.27405,19
"803","30030",2017-10-30,"Mon",9,4,5,"South 2nd Street & 3rd Ave S",44.98092673,-93.26345444,23
"804","30075",2017-10-30,"Mon",3,3,0,"Curfew Street & Ellis Ave.",44.96616,-93.20525,15
"805","30189",2017-10-30,"Mon",12,6,6,"Delaware Street SE & 26th Ave SE",44.972128,-93.221021,19
"806","30123",2017-10-30,"Mon",4,3,1,"Minnesota Dept. of Transportation",44.95385,-93.10445,15
"807","30188",2017-10-30,"Mon",3,3,0,"S 8th Street & 2nd Ave S",44.974795,-93.270649,19
"808","30065",2017-10-30,"Mon",3,3,0,"N Washington Ave & 9th Ave N",44.98987911,-93.27978373,15
"809","30082",2017-10-30,"Mon",1,0,1,"N Victoria Street & University Ave ",44.956052,-93.136556,15
"810","30164",2017-10-30,"Mon",1,0,1,"Cleveland Ave S & Highland Parkway",44.919593,-93.187264,15
"811","30193",2017-10-30,"Mon",4,2,2,"Mariucci Arena",44.977899,-93.226629,25
"812","30092",2017-10-30,"Mon",2,4,-2,"2nd Street N & 8th Ave N",44.98961164,-93.27718735,19
"813","30118",2017-10-30,"Mon",1,1,0,"7th Place & Jackson Street",44.949433,-93.091207,15
"814","30008",2017-10-30,"Mon",4,2,2,"Midtown Exchange",44.94859,-93.2602,19
"815","30054",2017-10-30,"Mon",1,1,0,"Midtown Greenway & 5th Ave S",44.950371,-93.269278,15
"816","30176",2017-10-30,"Mon",2,4,-2,"Washington Ave N & Cedar Lake Trail",44.985406,-93.274031,19
"817","30012",2017-10-30,"Mon",4,4,0,"Mpls Convention Center",44.970041,-93.275861,19
"818","30014",2017-10-30,"Mon",6,6,0,"22nd Ave S & Franklin Ave",44.96293,-93.241042,15
"819","30087",2017-10-30,"Mon",2,2,0,"Grant Street & Portland Ave",44.96954,-93.2669,15
"820","30086",2017-10-30,"Mon",1,2,-1,"Macalester College",44.940218,-93.17022,15
"821","30163",2017-10-30,"Mon",2,0,2,"38th Street Light Rail Station",44.93434,-93.229338,15
"822","30131",2017-10-30,"Mon",2,3,-1,"Harriet Island",44.93768,-93.094532,19
"823","30158",2017-10-30,"Mon",1,0,1,"Lake Street & Knox Ave S",44.9485,-93.305209,41
"824","30135",2017-10-30,"Mon",1,1,0,"7th Street W & Grand Ave",44.94144,-93.10624,15
"825","30094",2017-10-30,"Mon",3,4,-1,"West 32nd Street & Bryant Ave S",44.94478,-93.29038,15
"826","30194",2017-10-30,"Mon",6,11,-5,"23rd Ave SE & University Ave SE",44.974397,-93.223002,23
"827","30017",2017-10-30,"Mon",4,2,2,"Lyndale Ave S & 22nd Street ",44.960744,-93.28815,19
"828","30106",2017-10-30,"Mon",1,0,1,"Dale Street & Grand Ave.",44.939779,-93.126261,15
"829","30117",2017-10-30,"Mon",3,2,1,"10th Street E & Cedar Street",44.950189,-93.09759,15
"830","30023",2017-10-30,"Mon",1,1,0,"Chicago & 27th Street",44.95355,-93.26259,15
"831","30043",2017-10-30,"Mon",1,2,-1,"Lake Street & Humboldt",44.94865,-93.30077,19
"832","30171",2017-10-30,"Mon",4,3,1,"SE 3rd Ave & University Ave SE",44.985465,-93.252102,15
"833","30122",2017-10-30,"Mon",3,4,-1,"Broadway Street N & 4th Street E",44.94965,-93.0845,19
"834","30090",2017-10-30,"Mon",7,11,-4,"Portland Ave & Washington Ave",44.978068,-93.26023,19
"835","30079",2017-10-30,"Mon",1,1,0,"Sherburne Ave & Snelling Ave N",44.956624,-93.16734,15
"836","30161",2017-10-30,"Mon",2,3,-1,"27th Ave S & Minnehaha Ave",44.947329,-93.233092,15
"837","30160",2017-10-30,"Mon",2,5,-3,"Dupont Ave S & W 29th Street",44.949699,-93.293129,15
"838","30192",2017-10-30,"Mon",4,3,1,"Cooke Hall",44.976303,-93.230029,15
"839","30142",2017-10-30,"Mon",2,1,1,"9th Street N & Hawthorne Ave",44.97731428,-93.27776134,27
"840","30002",2017-10-30,"Mon",5,6,-1,"Riverside Ave & 23rd Ave S",44.967115,-93.240149,15
"841","30140",2017-10-30,"Mon",1,0,1,"Rice Street & University Ave W",44.95562146,-93.10574323,15
"842","30190",2017-10-30,"Mon",4,6,-2,"7th Street SE & 10th Ave SE",44.985576,-93.238743,15
"843","30187",2017-10-30,"Mon",4,5,-1,"Groveland Ave & Clifton Place",44.966145,-93.286294,19
"844","30062",2017-10-30,"Mon",2,4,-2,"Minneapolis Farmers Market",44.98052,-93.28542,15
"845","30125",2017-10-30,"Mon",1,3,-2,"Cedar Street & Columbus Ave",44.95235098,-93.09954867,15
"846","30130",2017-10-30,"Mon",1,2,-1,"Wabasha Street S & E Fillmore Ave",44.94065697,-93.09000671,17
"847","30166",2017-10-30,"Mon",1,1,0,"W 36th Street & W Calhoun Parkway",44.937817,-93.320212,19
"848","30167",2017-10-30,"Mon",1,2,-1,"E 38th Street & 42nd Ave S",44.9342,-93.2125,15
"849","30081",2017-10-30,"Mon",3,2,1,"East Lake Street & 36th Ave S",44.94826,-93.22106,15
"850","30055",2017-10-30,"Mon",1,1,0,"Malcolm Ave SE & 5th Street SE",44.97337143,-93.21126401,24
"851","30137",2017-10-30,"Mon",1,1,0,"Selby Ave & Virginia Street",44.9467,-93.1151,19
"852","30066",2017-10-30,"Mon",1,1,0,"Wirth Beach",44.9798,-93.322066,15
"853","30116",2017-10-30,"Mon",1,0,1,"Minnesota History Center",44.949053,-93.10673,15
"854","30180",2017-10-30,"Mon",1,3,-2,"3rd Street N & 8th Ave N",44.987996,-93.279854,19
"855","30177",2017-10-30,"Mon",1,1,0,"3rd Street NE & Lowry Ave NE",45.01304,-93.264573,15
"856","30000",2017-10-30,"Mon",1,0,1,"100 Main Street SE",44.984892,-93.256551,27
"857","30099",2017-10-30,"Mon",2,1,1,"Kowalski's Market",44.94010259,-93.15315127,15
"858","30038",2017-10-30,"Mon",1,0,1,"E Franklin Ave & Bloomington Ave S",44.96285,-93.252269,15
"859","30059",2017-10-30,"Mon",1,1,0,"Glenwood Ave & N Morgan Ave",44.981147,-93.304427,15
"860","30003",2017-10-30,"Mon",1,1,0,"Plymouth Ave N &  N Oliver Ave",44.991412,-93.306269,15
"861","30119",2017-10-30,"Mon",1,0,1,"Union Depot",44.948399,-93.086584,23
"862","30185",2017-10-30,"Mon",2,1,1,"5th Street NE & 3rd Ave NE",44.991821,-93.255558,15
"863","30147",2017-10-30,"Mon",1,1,0,"Lake Street & West River Parkway",44.948452,-93.206201,15
"864","30060",2017-10-30,"Mon",2,3,-1,"Nicollet & Franklin",44.96342,-93.277939,23
"865","30126",2017-10-30,"Mon",1,1,0,"5th Street E & Minnesota Street N",44.94683,-93.09231,19
"866","30101",2017-10-30,"Mon",1,2,-1,"N Milton Street & Summit Ave",44.941599,-93.138832,15
"867","30089",2017-10-30,"Mon",1,2,-1,"Lake Calhoun Center",44.94846717,-93.31729442,27
"868","30109",2017-10-30,"Mon",2,0,2,"Como Ave SE & 29th Ave SE",44.987934,-93.212892,19
"869","30199",2017-10-30,"Mon",1,1,0,"Hidden Falls Park",44.90700063,-93.19143176,19
"870","30026",2017-10-29,"Sun",2,0,2,"Mayo Memorial Building",44.97209,-93.23206,25
"871","30115",2017-10-29,"Sun",18,22,-4,"Washington Ave SE & Union Street SE",44.97394,-93.2321,31
"872","30004",2017-10-29,"Sun",6,2,4,"11th Street & Hennepin",44.97534,-93.27869,23
"873","30128",2017-10-29,"Sun",1,1,0,"Wells Fargo Place",44.94813,-93.09663,15
"874","30044",2017-10-29,"Sun",1,0,1,"26th Street & Hennepin",44.9554734,-93.29714298,15
"875","30024",2017-10-29,"Sun",13,13,0,"Coffman Union",44.973378,-93.234762,35
"876","30040",2017-10-29,"Sun",2,2,0,"11th Street & Marquette",44.97265,-93.27405,19
"877","30037",2017-10-29,"Sun",5,1,4,"Currie Park",44.969225,-93.251136,15
"878","30015",2017-10-29,"Sun",7,4,3,"Washington & Cedar",44.97344,-93.24748,20
"879","30046",2017-10-29,"Sun",4,1,3,"Washington Ave S & 10th Ave S",44.97654,-93.25535,19
"880","30048",2017-10-29,"Sun",5,5,0,"Dupont Ave & 22nd Street",44.96146,-93.29303,15
"881","30009",2017-10-29,"Sun",9,11,-2,"4th Street & 13th Ave SE",44.98102,-93.23746,27
"882","30093",2017-10-29,"Sun",8,7,1,"West 15th Street & Willow",44.968237,-93.281991,23
"883","30199",2017-10-29,"Sun",2,2,0,"Hidden Falls Park",44.90700063,-93.19143176,19
"884","30060",2017-10-29,"Sun",10,10,0,"Nicollet & Franklin",44.96342,-93.277939,23
"885","30099",2017-10-29,"Sun",1,1,0,"Kowalski's Market",44.94010259,-93.15315127,15
"886","30182",2017-10-29,"Sun",11,10,1,"Sanford Hall",44.980831,-93.240282,23
"887","30091",2017-10-29,"Sun",8,5,3,"Gateway Park",44.9825943,-93.2675139,19
"888","30154",2017-10-29,"Sun",14,6,8,"11th Ave S & S 2nd Street",44.97673,-93.252189,23
"889","30032",2017-10-29,"Sun",8,8,0,"4th Street & 17th Ave SE",44.97913,-93.23189,15
"890","30051",2017-10-29,"Sun",3,2,1,"7th Street & 4th Ave S",44.97497,-93.266684,15
"891","30042",2017-10-29,"Sun",6,6,0,"IDS Center",44.975641,-93.272185,23
"892","30197",2017-10-29,"Sun",11,7,4,"15th Ave SE & 4th Street SE",44.979878,-93.234739,23
"893","30052",2017-10-29,"Sun",3,3,0,"Nicollet Mall & Grant Street",44.96995,-93.278133,15
"894","30187",2017-10-29,"Sun",6,3,3,"Groveland Ave & Clifton Place",44.966145,-93.286294,19
"895","30020",2017-10-29,"Sun",3,1,2,"YWCA Uptown",44.95131,-93.29853,19
"896","30191",2017-10-29,"Sun",5,8,-3,"University Ave SE & Bedford Street SE",44.96876,-93.21003,15
"897","30029",2017-10-29,"Sun",3,5,-2,"Hennepin County Government Center",44.976602,-93.266701,41
"898","30161",2017-10-29,"Sun",3,4,-1,"27th Ave S & Minnehaha Ave",44.947329,-93.233092,15
"899","30088",2017-10-29,"Sun",11,8,3,"6th Ave SE & University Ave",44.983281,-93.24812,27
"900","30057",2017-10-29,"Sun",12,11,1,"McNamara Center",44.9743,-93.22854,19
"901","30096",2017-10-29,"Sun",2,2,0,"University Ave NE & 12th Ave NE",44.999874,-93.262955,15
"902","30143",2017-10-29,"Sun",10,12,-2,"Chicago Ave & S Washington Ave",44.977521,-93.256736,19
"903","30019",2017-10-29,"Sun",8,10,-2,"Social Sciences",44.97063898,-93.24355245,27
"904","30017",2017-10-29,"Sun",7,8,-1,"Lyndale Ave S & 22nd Street ",44.960744,-93.28815,19
"905","30117",2017-10-29,"Sun",1,1,0,"10th Street E & Cedar Street",44.950189,-93.09759,15
"906","30195",2017-10-29,"Sun",7,2,5,"Willey Hall",44.972404,-93.242891,23
"907","30170",2017-10-29,"Sun",3,3,0,"Nicollet Island",44.985388,-93.26145,15
"908","30034",2017-10-29,"Sun",15,11,4,"Oak Street Ramp",44.97202,-93.22697,23
"909","30039",2017-10-29,"Sun",8,6,2,"10th Street & Nicollet Mall",44.973839,-93.274544,19
"910","30160",2017-10-29,"Sun",3,3,0,"Dupont Ave S & W 29th Street",44.949699,-93.293129,15
"911","30127",2017-10-29,"Sun",1,1,0,"Landmark Plaza",44.945267,-93.096114,15
"912","30056",2017-10-29,"Sun",1,1,0,"Target Field Station",44.98412539,-93.27903807,19
"913","30064",2017-10-29,"Sun",2,3,-1,"28th Street & Nicollet Ave. S",44.9519,-93.27831,15
"914","30196",2017-10-29,"Sun",2,1,1,"Civil Engineering",44.976096,-93.231958,23
"915","30027",2017-10-29,"Sun",1,5,-4,"4th Street S & 19th Ave",44.97003,-93.24519,19
"916","30012",2017-10-29,"Sun",3,10,-7,"Mpls Convention Center",44.970041,-93.275861,19
"917","30050",2017-10-29,"Sun",7,6,1,"2nd Ave S & S 3rd Street",44.97974,-93.26599,27
"918","30202",2017-10-29,"Sun",6,5,1,"Mill City Quarter",44.9805,-93.2618,23
"919","30179",2017-10-29,"Sun",2,4,-2,"Park Ave & 4th Street S",44.97589503,-93.25998902,27
"920","30047",2017-10-29,"Sun",4,9,-5,"University & Bank Street SE",44.98717,-93.25576,19
"921","30189",2017-10-29,"Sun",5,4,1,"Delaware Street SE & 26th Ave SE",44.972128,-93.221021,19
"922","30162",2017-10-29,"Sun",2,2,0,"Mississippi River Blvd & Summit Ave",44.940288,-93.197997,15
"923","30005",2017-10-29,"Sun",3,3,0,"Hennepin & Central Avenue NE",44.98889,-93.25392,15
"924","30163",2017-10-29,"Sun",1,0,1,"38th Street Light Rail Station",44.93434,-93.229338,15
"925","30176",2017-10-29,"Sun",3,3,0,"Washington Ave N & Cedar Lake Trail",44.985406,-93.274031,19
"926","30085",2017-10-29,"Sun",2,2,0,"Grand Ave & Fairview Ave",44.940513,-93.177093,15
"927","30066",2017-10-29,"Sun",1,1,0,"Wirth Beach",44.9798,-93.322066,15
"928","30008",2017-10-29,"Sun",3,4,-1,"Midtown Exchange",44.94859,-93.2602,19
"929","30074",2017-10-29,"Sun",3,3,0,"27th Ave SE & University Ave",44.97259,-93.218919,15
"930","30094",2017-10-29,"Sun",1,0,1,"West 32nd Street & Bryant Ave S",44.94478,-93.29038,15
"931","30105",2017-10-29,"Sun",1,0,1,"Lexington Pkwy & University Ave",44.955363,-93.146379,15
"932","30198",2017-10-29,"Sun",7,7,0,"Bohemian Flats",44.976223,-93.2416,15
"933","30183",2017-10-29,"Sun",4,4,0,"Weisman Art Museum",44.973607,-93.237254,19
"934","30190",2017-10-29,"Sun",3,5,-2,"7th Street SE & 10th Ave SE",44.985576,-93.238743,15
"935","30007",2017-10-29,"Sun",6,4,2,"9th Street & 4th Ave",44.97265,-93.26872,19
"936","30147",2017-10-29,"Sun",6,6,0,"Lake Street & West River Parkway",44.948452,-93.206201,15
"937","30186",2017-10-29,"Sun",7,8,-1,"S 5th Street & Nicollet Mall",44.97866518,-93.27050328,19
"938","30192",2017-10-29,"Sun",2,2,0,"Cooke Hall",44.976303,-93.230029,15
"939","30031",2017-10-29,"Sun",2,2,0,"23rd Ave SE & 6th Street SE",44.977028,-93.221639,23
"940","30055",2017-10-29,"Sun",5,5,0,"Malcolm Ave SE & 5th Street SE",44.97337143,-93.21126401,24
"941","30028",2017-10-29,"Sun",2,1,1,"Washington & Marquette",44.98087361,-93.26692522,19
"942","30090",2017-10-29,"Sun",2,0,2,"Portland Ave & Washington Ave",44.978068,-93.26023,19
"943","30086",2017-10-29,"Sun",2,2,0,"Macalester College",44.940218,-93.17022,15
"944","30061",2017-10-29,"Sun",4,2,2,"W 31st Street & Hennepin Ave S",44.946687,-93.29736,19
"945","30014",2017-10-29,"Sun",2,2,0,"22nd Ave S & Franklin Ave",44.96293,-93.241042,15
"946","30000",2017-10-29,"Sun",3,5,-2,"100 Main Street SE",44.984892,-93.256551,27
"947","30033",2017-10-29,"Sun",1,0,1,"Franklin & 11th Ave",44.96251,-93.2583,15
"948","30194",2017-10-29,"Sun",4,6,-2,"23rd Ave SE & University Ave SE",44.974397,-93.223002,23
"949","30101",2017-10-29,"Sun",2,0,2,"N Milton Street & Summit Ave",44.941599,-93.138832,15
"950","30180",2017-10-29,"Sun",3,6,-3,"3rd Street N & 8th Ave N",44.987996,-93.279854,19
"951","30100",2017-10-29,"Sun",1,1,0,"Lake Como Pavilion",44.981914,-93.143383,23
"952","30167",2017-10-29,"Sun",5,2,3,"E 38th Street & 42nd Ave S",44.9342,-93.2125,15
"953","30016",2017-10-29,"Sun",1,0,1,"Walker Art Center",44.96710368,-93.2890749,23
"954","30011",2017-10-29,"Sun",4,2,2,"North 2nd Street & 4th Ave N",44.986087,-93.272459,19
"955","30110",2017-10-29,"Sun",1,2,-1,"15th Ave SE & Como Ave SE",44.987517,-93.230469,19
"956","30054",2017-10-29,"Sun",1,1,0,"Midtown Greenway & 5th Ave S",44.950371,-93.269278,15
"957","30104",2017-10-29,"Sun",1,1,0,"Logan Park",44.99882,-93.25276,23
"958","30035",2017-10-29,"Sun",1,1,0,"Loring Park",44.9715,-93.284927,15
"959","30089",2017-10-29,"Sun",3,3,0,"Lake Calhoun Center",44.94846717,-93.31729442,27
"960","30013",2017-10-29,"Sun",3,3,0,"Lyndale Ave S & W 29th Street",44.94948465,-93.28822732,19
"961","30023",2017-10-29,"Sun",1,2,-1,"Chicago & 27th Street",44.95355,-93.26259,15
"962","30006",2017-10-29,"Sun",5,5,0,"YWCA Downtown",44.972217,-93.276435,23
"963","30087",2017-10-29,"Sun",1,2,-1,"Grant Street & Portland Ave",44.96954,-93.2669,15
"964","30041",2017-10-29,"Sun",1,2,-1,"Franklin & Portland",44.962846,-93.267526,15
"965","30059",2017-10-29,"Sun",1,1,0,"Glenwood Ave & N Morgan Ave",44.981147,-93.304427,15
"966","30107",2017-10-29,"Sun",2,2,0,"Dale Street N & University Ave",44.956066,-93.126088,15
"967","30025",2017-10-29,"Sun",4,7,-3,"Williamson Hall",44.977406,-93.234911,25
"968","30144",2017-10-29,"Sun",5,2,3,"N 4th Ave & W River Parkway",44.988461,-93.269087,15
"969","30078",2017-10-29,"Sun",2,2,0,"Englewood Ave & N Asbury Street",44.964172,-93.165868,15
"970","30142",2017-10-29,"Sun",3,4,-1,"9th Street N & Hawthorne Ave",44.97731428,-93.27776134,27
"971","30135",2017-10-29,"Sun",1,0,1,"7th Street W & Grand Ave",44.94144,-93.10624,15
"972","30030",2017-10-29,"Sun",4,3,1,"South 2nd Street & 3rd Ave S",44.98092673,-93.26345444,23
"973","30053",2017-10-29,"Sun",1,2,-1,"2nd Ave N & N 6th Street",44.980536,-93.275626,23
"974","30049",2017-10-29,"Sun",1,2,-1,"Nicollet Ave & W 37th Street",44.93531794,-93.27807784,15
"975","30149",2017-10-29,"Sun",9,9,0,"Minnehaha Park",44.916906,-93.213587,27
"976","30184",2017-10-29,"Sun",4,3,1,"Hennepin Ave & S Washington Ave",44.981895,-93.269195,23
"977","30177",2017-10-29,"Sun",1,3,-2,"3rd Street NE & Lowry Ave NE",45.01304,-93.264573,15
"978","30113",2017-10-29,"Sun",2,2,0,"U of M St. Paul Student Center",44.984527,-93.185029,15
"979","30156",2017-10-29,"Sun",4,4,0,"Lake Nokomis",44.915957,-93.242761,23
"980","30171",2017-10-29,"Sun",1,1,0,"SE 3rd Ave & University Ave SE",44.985465,-93.252102,15
"981","30081",2017-10-29,"Sun",1,5,-4,"East Lake Street & 36th Ave S",44.94826,-93.22106,15
"982","30021",2017-10-29,"Sun",1,3,-2,"2nd Ave N & Washington Ave N",44.98383,-93.27099,19
"983","30002",2017-10-29,"Sun",2,2,0,"Riverside Ave & 23rd Ave S",44.967115,-93.240149,15
"984","30203",2017-10-29,"Sun",1,1,0,"W 50th Street & W Minnehaha Pkwy",44.912125,-93.298552,23
"985","NRHQ",2017-10-29,"Sun",1,1,0,"Nice Ride World Headquarters",44.953566,-93.220066,7
"986","30157",2017-10-29,"Sun",1,1,0,"Lake Harriet Bandshell",44.92936,-93.30713,25
"987","30063",2017-10-29,"Sun",1,2,-1,"Elliot Park",44.970553,-93.26079,15
"988","30058",2017-10-29,"Sun",1,0,1,"Elliot Hall",44.97685,-93.23818,15
"989","30158",2017-10-29,"Sun",1,1,0,"Lake Street & Knox Ave S",44.9485,-93.305209,41
"990","30062",2017-10-29,"Sun",1,3,-2,"Minneapolis Farmers Market",44.98052,-93.28542,15
"991","30185",2017-10-29,"Sun",3,2,1,"5th Street NE & 3rd Ave NE",44.991821,-93.255558,15
"992","30018",2017-10-29,"Sun",1,5,-4,"MCAD",44.957214,-93.274981,17
"993","30174",2017-10-29,"Sun",3,2,1,"Hiawatha Ave & E 50th Street",44.91294254,-93.21014017,15
"994","30153",2017-10-29,"Sun",2,2,0,"Coldwater Spring",44.905043,-93.198283,15
"995","30169",2017-10-29,"Sun",1,0,1,"Marshall Street NE & 18th Ave NE",45.006229,-93.271571,15
"996","30175",2017-10-29,"Sun",1,1,0,"18th Ave Trail & 2nd Street NE",45.006321,-93.266553,15
"997","30151",2017-10-29,"Sun",1,0,1,"Boom Island Park",44.99254,-93.270256,15
"998","30168",2017-10-29,"Sun",1,1,0,"Marshall Street NE & Lowry Ave",45.01312,-93.27166,15
"999","30092",2017-10-29,"Sun",1,2,-1,"2nd Street N & 8th Ave N",44.98961164,-93.27718735,19
"1000","30045",2017-10-29,"Sun",1,0,1,"Franklin & 28th Ave",44.962701,-93.230893,19
"1001","30098",2017-10-29,"Sun",1,0,1,"Marshall Street NE & 8th Ave NE",44.995348,-93.266854,15
"1002","30038",2017-10-29,"Sun",1,1,0,"E Franklin Ave & Bloomington Ave S",44.96285,-93.252269,15
"1003","30001",2017-10-29,"Sun",1,0,1,"25th Street & 33rd Ave S",44.957341,-93.223374,15
"1004","30097",2017-10-29,"Sun",1,0,1,"Pleasant Ave S &  Lake Street",44.948556,-93.283163,15
"1005","30034",2017-10-28,"Sat",10,6,4,"Oak Street Ramp",44.97202,-93.22697,23
"1006","30047",2017-10-28,"Sat",5,4,1,"University & Bank Street SE",44.98717,-93.25576,19
"1007","30183",2017-10-28,"Sat",10,9,1,"Weisman Art Museum",44.973607,-93.237254,19
"1008","30007",2017-10-28,"Sat",5,9,-4,"9th Street & 4th Ave",44.97265,-93.26872,19
"1009","30197",2017-10-28,"Sat",10,15,-5,"15th Ave SE & 4th Street SE",44.979878,-93.234739,23
"1010","30115",2017-10-28,"Sat",10,17,-7,"Washington Ave SE & Union Street SE",44.97394,-93.2321,31
"1011","30015",2017-10-28,"Sat",10,9,1,"Washington & Cedar",44.97344,-93.24748,20
"1012","30040",2017-10-28,"Sat",3,2,1,"11th Street & Marquette",44.97265,-93.27405,19
"1013","30175",2017-10-28,"Sat",1,1,0,"18th Ave Trail & 2nd Street NE",45.006321,-93.266553,15
"1014","30179",2017-10-28,"Sat",4,5,-1,"Park Ave & 4th Street S",44.97589503,-93.25998902,27
"1015","30017",2017-10-28,"Sat",16,7,9,"Lyndale Ave S & 22nd Street ",44.960744,-93.28815,19
"1016","30168",2017-10-28,"Sat",1,2,-1,"Marshall Street NE & Lowry Ave",45.01312,-93.27166,15
"1017","30194",2017-10-28,"Sat",17,7,10,"23rd Ave SE & University Ave SE",44.974397,-93.223002,23
"1018","30046",2017-10-28,"Sat",6,2,4,"Washington Ave S & 10th Ave S",44.97654,-93.25535,19
"1019","30057",2017-10-28,"Sat",17,12,5,"McNamara Center",44.9743,-93.22854,19
"1020","30011",2017-10-28,"Sat",12,4,8,"North 2nd Street & 4th Ave N",44.986087,-93.272459,19
"1021","30110",2017-10-28,"Sat",7,9,-2,"15th Ave SE & Como Ave SE",44.987517,-93.230469,19
"1022","30004",2017-10-28,"Sat",5,7,-2,"11th Street & Hennepin",44.97534,-93.27869,23
"1023","30191",2017-10-28,"Sat",2,4,-2,"University Ave SE & Bedford Street SE",44.96876,-93.21003,15
"1024","30049",2017-10-28,"Sat",2,0,2,"Nicollet Ave & W 37th Street",44.93531794,-93.27807784,15
"1025","30009",2017-10-28,"Sat",13,10,3,"4th Street & 13th Ave SE",44.98102,-93.23746,27
"1026","30104",2017-10-28,"Sat",1,1,0,"Logan Park",44.99882,-93.25276,23
"1027","30074",2017-10-28,"Sat",5,4,1,"27th Ave SE & University Ave",44.97259,-93.218919,15
"1028","30026",2017-10-28,"Sat",4,0,4,"Mayo Memorial Building",44.97209,-93.23206,25
"1029","30010",2017-10-28,"Sat",2,1,1,"Hennepin & Laurel Ave",44.97391,-93.28305,15
"1030","30088",2017-10-28,"Sat",13,9,4,"6th Ave SE & University Ave",44.983281,-93.24812,27
"1031","30052",2017-10-28,"Sat",3,2,1,"Nicollet Mall & Grant Street",44.96995,-93.278133,15
"1032","30043",2017-10-28,"Sat",2,0,2,"Lake Street & Humboldt",44.94865,-93.30077,19
"1033","30182",2017-10-28,"Sat",11,20,-9,"Sanford Hall",44.980831,-93.240282,23
"1034","30143",2017-10-28,"Sat",9,14,-5,"Chicago Ave & S Washington Ave",44.977521,-93.256736,19
"1035","30093",2017-10-28,"Sat",5,5,0,"West 15th Street & Willow",44.968237,-93.281991,23
"1036","30037",2017-10-28,"Sat",1,3,-2,"Currie Park",44.969225,-93.251136,15
"1037","30044",2017-10-28,"Sat",4,4,0,"26th Street & Hennepin",44.9554734,-93.29714298,15
"1038","30186",2017-10-28,"Sat",4,8,-4,"S 5th Street & Nicollet Mall",44.97866518,-93.27050328,19
"1039","30195",2017-10-28,"Sat",6,10,-4,"Willey Hall",44.972404,-93.242891,23
"1040","30145",2017-10-28,"Sat",1,1,0,"Minneapolis Park & Recreation Board",45.00095,-93.277037,15
"1041","30091",2017-10-28,"Sat",8,7,1,"Gateway Park",44.9825943,-93.2675139,19
"1042","30019",2017-10-28,"Sat",6,9,-3,"Social Sciences",44.97063898,-93.24355245,27
"1043","30024",2017-10-28,"Sat",6,4,2,"Coffman Union",44.973378,-93.234762,35
"1044","30063",2017-10-28,"Sat",1,1,0,"Elliot Park",44.970553,-93.26079,15
"1045","30060",2017-10-28,"Sat",8,8,0,"Nicollet & Franklin",44.96342,-93.277939,23
"1046","30113",2017-10-28,"Sat",2,1,1,"U of M St. Paul Student Center",44.984527,-93.185029,15
"1047","30109",2017-10-28,"Sat",3,5,-2,"Como Ave SE & 29th Ave SE",44.987934,-93.212892,19
"1048","30147",2017-10-28,"Sat",3,1,2,"Lake Street & West River Parkway",44.948452,-93.206201,15
"1049","NRHQ",2017-10-28,"Sat",2,3,-1,"Nice Ride World Headquarters",44.953566,-93.220066,7
"1050","30027",2017-10-28,"Sat",5,3,2,"4th Street S & 19th Ave",44.97003,-93.24519,19
"1051","30196",2017-10-28,"Sat",2,1,1,"Civil Engineering",44.976096,-93.231958,23
"1052","30160",2017-10-28,"Sat",4,2,2,"Dupont Ave S & W 29th Street",44.949699,-93.293129,15
"1053","30025",2017-10-28,"Sat",3,3,0,"Williamson Hall",44.977406,-93.234911,25
"1054","30031",2017-10-28,"Sat",4,3,1,"23rd Ave SE & 6th Street SE",44.977028,-93.221639,23
"1055","30202",2017-10-28,"Sat",3,2,1,"Mill City Quarter",44.9805,-93.2618,23
"1056","30016",2017-10-28,"Sat",4,2,2,"Walker Art Center",44.96710368,-93.2890749,23
"1057","30032",2017-10-28,"Sat",5,3,2,"4th Street & 17th Ave SE",44.97913,-93.23189,15
"1058","30187",2017-10-28,"Sat",6,5,1,"Groveland Ave & Clifton Place",44.966145,-93.286294,19
"1059","30089",2017-10-28,"Sat",2,1,1,"Lake Calhoun Center",44.94846717,-93.31729442,27
"1060","30030",2017-10-28,"Sat",5,4,1,"South 2nd Street & 3rd Ave S",44.98092673,-93.26345444,23
"1061","30029",2017-10-28,"Sat",1,2,-1,"Hennepin County Government Center",44.976602,-93.266701,41
"1062","30158",2017-10-28,"Sat",5,5,0,"Lake Street & Knox Ave S",44.9485,-93.305209,41
"1063","30035",2017-10-28,"Sat",7,5,2,"Loring Park",44.9715,-93.284927,15
"1064","30014",2017-10-28,"Sat",5,3,2,"22nd Ave S & Franklin Ave",44.96293,-93.241042,15
"1065","30048",2017-10-28,"Sat",4,5,-1,"Dupont Ave & 22nd Street",44.96146,-93.29303,15
"1066","30064",2017-10-28,"Sat",1,0,1,"28th Street & Nicollet Ave. S",44.9519,-93.27831,15
"1067","30149",2017-10-28,"Sat",5,5,0,"Minnehaha Park",44.916906,-93.213587,27
"1068","30018",2017-10-28,"Sat",3,2,1,"MCAD",44.957214,-93.274981,17
"1069","30188",2017-10-28,"Sat",1,0,1,"S 8th Street & 2nd Ave S",44.974795,-93.270649,19
"1070","30000",2017-10-28,"Sat",9,8,1,"100 Main Street SE",44.984892,-93.256551,27
"1071","30042",2017-10-28,"Sat",4,2,2,"IDS Center",44.975641,-93.272185,23
"1072","30002",2017-10-28,"Sat",3,2,1,"Riverside Ave & 23rd Ave S",44.967115,-93.240149,15
"1073","30189",2017-10-28,"Sat",6,5,1,"Delaware Street SE & 26th Ave SE",44.972128,-93.221021,19
"1074","30028",2017-10-28,"Sat",3,0,3,"Washington & Marquette",44.98087361,-93.26692522,19
"1075","30092",2017-10-28,"Sat",5,2,3,"2nd Street N & 8th Ave N",44.98961164,-93.27718735,19
"1076","30174",2017-10-28,"Sat",5,3,2,"Hiawatha Ave & E 50th Street",44.91294254,-93.21014017,15
"1077","30166",2017-10-28,"Sat",4,0,4,"W 36th Street & W Calhoun Parkway",44.937817,-93.320212,19
"1078","30159",2017-10-28,"Sat",2,2,0,"Fort Snelling State Park",44.890527,-93.18237,19
"1079","30087",2017-10-28,"Sat",6,3,3,"Grant Street & Portland Ave",44.96954,-93.2669,15
"1080","30150",2017-10-28,"Sat",4,4,0,"Fort Snelling Visitor Center",44.894044,-93.187381,19
"1081","30157",2017-10-28,"Sat",1,1,0,"Lake Harriet Bandshell",44.92936,-93.30713,25
"1082","30050",2017-10-28,"Sat",2,2,0,"2nd Ave S & S 3rd Street",44.97974,-93.26599,27
"1083","30171",2017-10-28,"Sat",5,1,4,"SE 3rd Ave & University Ave SE",44.985465,-93.252102,15
"1084","30116",2017-10-28,"Sat",1,0,1,"Minnesota History Center",44.949053,-93.10673,15
"1085","30153",2017-10-28,"Sat",2,2,0,"Coldwater Spring",44.905043,-93.198283,15
"1086","30199",2017-10-28,"Sat",1,1,0,"Hidden Falls Park",44.90700063,-93.19143176,19
"1087","30167",2017-10-28,"Sat",2,2,0,"E 38th Street & 42nd Ave S",44.9342,-93.2125,15
"1088","30013",2017-10-28,"Sat",2,6,-4,"Lyndale Ave S & W 29th Street",44.94948465,-93.28822732,19
"1089","30100",2017-10-28,"Sat",1,1,0,"Lake Como Pavilion",44.981914,-93.143383,23
"1090","30059",2017-10-28,"Sat",1,1,0,"Glenwood Ave & N Morgan Ave",44.981147,-93.304427,15
"1091","30154",2017-10-28,"Sat",2,2,0,"11th Ave S & S 2nd Street",44.97673,-93.252189,23
"1092","30033",2017-10-28,"Sat",1,4,-3,"Franklin & 11th Ave",44.96251,-93.2583,15
"1093","30117",2017-10-28,"Sat",2,1,1,"10th Street E & Cedar Street",44.950189,-93.09759,15
"1094","30085",2017-10-28,"Sat",3,3,0,"Grand Ave & Fairview Ave",44.940513,-93.177093,15
"1095","30020",2017-10-28,"Sat",1,4,-3,"YWCA Uptown",44.95131,-93.29853,19
"1096","30086",2017-10-28,"Sat",2,0,2,"Macalester College",44.940218,-93.17022,15
"1097","30163",2017-10-28,"Sat",4,2,2,"38th Street Light Rail Station",44.93434,-93.229338,15
"1098","30041",2017-10-28,"Sat",1,2,-1,"Franklin & Portland",44.962846,-93.267526,15
"1099","30065",2017-10-28,"Sat",1,2,-1,"N Washington Ave & 9th Ave N",44.98987911,-93.27978373,15
"1100","30103",2017-10-28,"Sat",1,1,0,"Hague Ave & Dale Street",44.945736,-93.12661,15
"1101","30006",2017-10-28,"Sat",3,5,-2,"YWCA Downtown",44.972217,-93.276435,23
"1102","30165",2017-10-28,"Sat",1,1,0,"Upton Ave S & Sheridan Ave S",44.92515,-93.314597,15
"1103","30180",2017-10-28,"Sat",1,3,-2,"3rd Street N & 8th Ave N",44.987996,-93.279854,19
"1104","30051",2017-10-28,"Sat",1,2,-1,"7th Street & 4th Ave S",44.97497,-93.266684,15
"1105","30038",2017-10-28,"Sat",1,2,-1,"E Franklin Ave & Bloomington Ave S",44.96285,-93.252269,15
"1106","30073",2017-10-28,"Sat",1,3,-2,"West 34th Street  & Hennepin Ave S",44.941388,-93.298634,19
"1107","30192",2017-10-28,"Sat",1,4,-3,"Cooke Hall",44.976303,-93.230029,15
"1108","30181",2017-10-28,"Sat",1,1,0,"5th Ave N & 4th Street N",44.98446,-93.277234,23
"1109","30054",2017-10-28,"Sat",1,1,0,"Midtown Greenway & 5th Ave S",44.950371,-93.269278,15
"1110","30056",2017-10-28,"Sat",1,2,-1,"Target Field Station",44.98412539,-93.27903807,19
"1111","30119",2017-10-28,"Sat",1,1,0,"Union Depot",44.948399,-93.086584,23
"1112","30203",2017-10-28,"Sat",1,1,0,"W 50th Street & W Minnehaha Pkwy",44.912125,-93.298552,23
"1113","30082",2017-10-28,"Sat",1,0,1,"N Victoria Street & University Ave ",44.956052,-93.136556,15
"1114","30094",2017-10-28,"Sat",1,0,1,"West 32nd Street & Bryant Ave S",44.94478,-93.29038,15
"1115","30021",2017-10-28,"Sat",4,8,-4,"2nd Ave N & Washington Ave N",44.98383,-93.27099,19
"1116","30053",2017-10-28,"Sat",1,1,0,"2nd Ave N & N 6th Street",44.980536,-93.275626,23
"1117","30005",2017-10-28,"Sat",1,0,1,"Hennepin & Central Avenue NE",44.98889,-93.25392,15
"1118","30090",2017-10-28,"Sat",3,3,0,"Portland Ave & Washington Ave",44.978068,-93.26023,19
"1119","30062",2017-10-28,"Sat",1,3,-2,"Minneapolis Farmers Market",44.98052,-93.28542,15
"1120","30095",2017-10-28,"Sat",3,0,3,"West 36th Street & Bryant Ave S",44.93775,-93.2912,15
"1121","30155",2017-10-28,"Sat",1,1,0,"University of St. Thomas",44.93992412,-93.19278225,15
"1122","30101",2017-10-28,"Sat",1,1,0,"N Milton Street & Summit Ave",44.941599,-93.138832,15
"1123","30129",2017-10-28,"Sat",2,1,1,"Shepard Road & Sibley Street",44.94638658,-93.08343261,15
"1124","30176",2017-10-28,"Sat",1,2,-1,"Washington Ave N & Cedar Lake Trail",44.985406,-93.274031,19
"1125","30079",2017-10-28,"Sat",1,1,0,"Sherburne Ave & Snelling Ave N",44.956624,-93.16734,15
"1126","30190",2017-10-28,"Sat",1,0,1,"7th Street SE & 10th Ave SE",44.985576,-93.238743,15
"1127","30039",2017-10-28,"Sat",1,4,-3,"10th Street & Nicollet Mall",44.973839,-93.274544,19
"1128","30137",2017-10-28,"Sat",1,1,0,"Selby Ave & Virginia Street",44.9467,-93.1151,19
"1129","30081",2017-10-28,"Sat",2,3,-1,"East Lake Street & 36th Ave S",44.94826,-93.22106,15
"1130","30184",2017-10-28,"Sat",1,5,-4,"Hennepin Ave & S Washington Ave",44.981895,-93.269195,23
"1131","30015",2017-10-27,"Fri",1,1,0,"Washington & Cedar",44.97344,-93.24748,20
"1132","30019",2017-10-27,"Fri",16,10,6,"Social Sciences",44.97063898,-93.24355245,27
"1133","30115",2017-10-27,"Fri",19,22,-3,"Washington Ave SE & Union Street SE",44.97394,-93.2321,31
"1134","30007",2017-10-27,"Fri",2,0,2,"9th Street & 4th Ave",44.97265,-93.26872,19
"1135","30057",2017-10-27,"Fri",10,13,-3,"McNamara Center",44.9743,-93.22854,19
